,City,Lat,Lng,Max Temp,Humidity,Cloudiness,Wind Speed,Country,Date
1,watsa,3.04,29.54,64.17,59.0,22.0,2.66,CD,1609120008.0
2,umm kaddadah,13.6,26.69,63.14,27.0,3.0,13.11,SD,1609120010.0
3,butaritari,3.07,172.79,81.64,79.0,100.0,21.36,KI,1609120011.0
4,coronel,-37.02,-73.13,57.2,93.0,20.0,6.93,CL,1609120012.0
5,ushuaia,-54.8,-68.3,57.2,35.0,20.0,19.46,AR,1609119906.0
6,rikitea,-23.12,-134.97,78.66,78.0,73.0,15.28,PF,1609120014.0
7,new norfolk,-42.78,147.06,64.99,37.0,90.0,3.0,AU,1609120016.0
8,esperance,-33.87,121.9,64.4,45.0,0.0,11.41,AU,1609120017.0
10,puerto ayora,-0.74,-90.35,73.0,91.0,100.0,1.99,EC,1609120018.0
11,atuona,-9.8,-139.03,79.02,74.0,0.0,16.11,PF,1609120019.0
12,khorramshahr,30.44,48.17,51.8,66.0,75.0,9.17,IR,1609120020.0
13,hilo,19.73,-155.09,78.8,65.0,75.0,5.82,US,1609119822.0
14,bambous virieux,-20.34,57.76,77.0,88.0,40.0,11.41,MU,1609120023.0
15,saint george,37.1,-113.58,46.4,68.0,90.0,4.7,US,1609119789.0
16,arraial do cabo,-22.97,-42.03,77.0,83.0,0.0,14.99,BR,1609120025.0
17,lasa,46.62,10.7,28.99,57.0,75.0,8.05,IT,1609120027.0
18,airai,-8.93,125.41,72.73,74.0,100.0,2.3,TL,1609120028.0
19,domoni,-12.26,44.53,79.34,81.0,100.0,9.44,KM,1609120029.0
20,berlevag,70.86,29.09,25.3,90.0,100.0,26.75,NO,1609120030.0
21,qaanaaq,77.48,-69.36,-1.43,71.0,86.0,7.27,GL,1609120031.0
22,bluff,-46.6,168.33,68.0,55.0,0.0,8.01,NZ,1609120033.0
23,ilulissat,69.22,-51.1,30.2,63.0,95.0,3.36,GL,1609120034.0
24,clyde river,70.47,-68.59,-9.4,83.0,100.0,29.97,CA,1609120035.0
25,saskylakh,71.92,114.08,-15.11,86.0,96.0,19.77,RU,1609120036.0
26,mataura,-46.19,168.86,68.0,55.0,0.0,8.01,NZ,1609120037.0
27,port alfred,-33.59,26.89,66.0,88.0,1.0,1.99,ZA,1609120038.0
28,sur,22.57,59.53,66.63,47.0,18.0,12.57,OM,1609120040.0
29,vila velha,-20.33,-40.29,77.0,83.0,0.0,8.05,BR,1609120037.0
30,jamestown,42.1,-79.24,33.01,80.0,1.0,16.06,US,1609120012.0
32,awjilah,29.11,21.29,51.84,56.0,0.0,7.38,LY,1609120043.0
33,richards bay,-28.78,32.04,73.38,81.0,57.0,10.22,ZA,1609120045.0
34,canico,32.63,-16.85,60.8,67.0,20.0,11.41,PT,1609120046.0
35,bilibino,68.05,166.44,-22.63,78.0,0.0,0.58,RU,1609120047.0
36,namibe,-15.2,12.15,71.02,74.0,99.0,3.18,AO,1609120048.0
37,sistranda,63.73,8.83,42.8,56.0,0.0,27.51,NO,1609120049.0
38,lewiston,44.1,-70.21,28.0,79.0,1.0,3.13,US,1609120050.0
39,deputatskiy,69.3,139.9,-16.22,89.0,100.0,7.07,RU,1609120052.0
40,cockburn town,21.46,-71.14,78.4,71.0,35.0,8.66,TC,1609120053.0
41,san cristobal,7.77,-72.22,64.13,89.0,68.0,2.86,VE,1609120054.0
42,busselton,-33.65,115.33,69.01,48.0,0.0,5.99,AU,1609120055.0
43,havre-saint-pierre,50.23,-63.6,15.8,72.0,75.0,8.05,CA,1609120057.0
44,bredasdorp,-34.53,20.04,60.8,77.0,28.0,3.36,ZA,1609120058.0
45,huancavelica,-12.77,-74.98,40.05,93.0,100.0,5.12,PE,1609120059.0
46,malinovskiy,61.2,62.84,-7.42,91.0,100.0,8.05,RU,1609120060.0
47,punta arenas,-53.15,-70.92,51.8,57.0,0.0,9.17,CL,1609119859.0
48,hobart,-42.88,147.33,64.99,47.0,40.0,12.75,AU,1609119972.0
49,ust-uda,54.17,103.03,-24.34,83.0,100.0,3.31,RU,1609120064.0
50,sao filipe,14.9,-24.5,74.91,76.0,100.0,4.21,CV,1609120065.0
51,cape town,-33.93,18.42,63.0,72.0,0.0,11.41,ZA,1609120062.0
52,chokwe,-24.53,32.98,77.14,81.0,3.0,4.36,MZ,1609120067.0
53,avera,33.19,-82.53,41.0,65.0,1.0,4.7,US,1609120069.0
54,upernavik,72.79,-56.15,19.13,80.0,94.0,8.77,GL,1609120070.0
55,nemours,48.28,2.69,41.0,100.0,90.0,10.29,FR,1609120071.0
56,kapaa,22.08,-159.32,78.8,74.0,75.0,17.22,US,1609120072.0
57,villa maria,-32.41,-63.24,78.01,60.0,92.0,1.01,AR,1609120073.0
58,naze,28.37,129.48,69.8,68.0,75.0,17.22,JP,1609120075.0
59,talnakh,69.49,88.4,-36.4,73.0,0.0,6.71,RU,1609120076.0
60,padang,-0.95,100.35,84.52,58.0,100.0,1.25,ID,1609120077.0
61,ust-maya,60.42,134.53,-37.75,81.0,100.0,1.99,RU,1609120078.0
62,quatre cocos,-20.21,57.76,77.0,88.0,40.0,11.41,MU,1609120079.0
63,barrow,71.29,-156.79,-2.2,77.0,90.0,9.17,US,1609120074.0
64,tucupita,9.06,-62.05,71.87,96.0,56.0,3.65,VE,1609120082.0
65,yellowknife,62.46,-114.35,3.2,84.0,75.0,11.41,CA,1609120069.0
66,erzin,36.96,36.2,42.8,46.0,0.0,3.36,TR,1609120084.0
67,victoria,22.29,114.16,72.0,58.0,14.0,3.0,HK,1609120036.0
68,torbay,47.67,-52.73,37.99,93.0,90.0,9.17,CA,1609120086.0
69,tasiilaq,65.61,-37.64,26.6,53.0,100.0,2.24,GL,1609120087.0
70,chokurdakh,70.63,147.92,-31.86,83.0,23.0,4.63,RU,1609120089.0
71,tuktoyaktuk,69.45,-133.04,-4.0,83.0,90.0,6.93,CA,1609120090.0
72,soure,-0.72,-48.52,81.37,78.0,100.0,14.9,BR,1609119991.0
73,challapata,-18.9,-66.77,52.21,60.0,98.0,9.55,BO,1609120092.0
74,grand-bourg,15.88,-61.31,75.2,88.0,17.0,2.24,GP,1609120093.0
75,sao joao da barra,-21.64,-41.05,75.72,87.0,100.0,15.79,BR,1609120094.0
77,tilichiki,60.47,166.1,-3.44,91.0,100.0,12.62,RU,1609120096.0
79,revda,56.8,59.93,19.4,92.0,75.0,4.47,RU,1609120097.0
80,dolores,-36.31,-57.68,72.07,77.0,99.0,17.34,AR,1609120098.0
82,klaksvik,62.23,-6.59,37.4,88.0,100.0,29.97,FO,1609120099.0
83,balaipungut,1.05,101.28,75.2,88.0,40.0,1.19,ID,1609120100.0
84,nador,35.17,-2.93,57.2,54.0,0.0,6.93,MA,1609120102.0
85,mar del plata,-38.0,-57.56,69.8,88.0,90.0,13.87,AR,1609120059.0
86,muros,42.78,-9.06,46.99,81.0,93.0,5.01,ES,1609120104.0
87,nikolskoye,59.7,30.79,28.4,79.0,90.0,11.18,RU,1609120105.0
89,baghmara,23.8,86.21,58.59,40.0,0.0,2.64,IN,1609120106.0
91,souillac,-20.52,57.52,77.0,88.0,40.0,11.41,MU,1609120108.0
93,kenai,60.55,-151.26,35.6,80.0,90.0,13.87,US,1609120109.0
96,mahebourg,-20.41,57.7,77.0,88.0,40.0,11.41,MU,1609120110.0
97,marsh harbour,26.54,-77.06,68.68,75.0,6.0,22.46,BS,1609120111.0
99,lazarev,52.23,141.51,-10.77,80.0,100.0,8.68,RU,1609120113.0
100,leshukonskoye,64.9,45.76,-7.64,90.0,52.0,3.2,RU,1609120114.0
101,faanui,-16.48,-151.75,80.85,69.0,100.0,7.02,PF,1609120115.0
102,lakes entrance,-37.88,147.98,62.01,65.0,86.0,5.01,AU,1609120116.0
103,iqaluit,63.75,-68.51,15.8,85.0,90.0,4.7,CA,1609120117.0
104,am timan,11.03,20.28,71.87,29.0,53.0,8.01,TD,1609120118.0
105,mayfield,36.74,-88.64,55.99,47.0,90.0,13.87,US,1609120120.0
106,pisco,-13.7,-76.22,68.0,88.0,20.0,16.11,PE,1609120121.0
107,tongchuan,35.08,109.09,37.74,64.0,71.0,10.29,CN,1609120122.0
108,isangel,-19.55,169.27,86.0,70.0,75.0,11.41,VU,1609120123.0
109,chuy,-33.7,-53.46,69.17,89.0,16.0,11.43,UY,1609120124.0
110,haines junction,60.75,-137.51,12.81,92.0,98.0,1.48,CA,1609120126.0
111,san julian,21.02,-102.17,56.91,32.0,0.0,1.68,MX,1609120127.0
112,norman wells,65.28,-126.83,-5.8,76.0,75.0,3.36,CA,1609120128.0
113,namatanai,-3.67,152.43,86.4,61.0,98.0,6.98,PG,1609120129.0
114,tiksi,71.69,128.87,2.89,92.0,100.0,15.35,RU,1609120130.0
115,sola,-13.88,167.55,84.33,68.0,11.0,3.91,VU,1609120131.0
116,kutum,14.2,24.67,55.35,38.0,0.0,4.97,SD,1609120133.0
118,sao sebastiao,-23.76,-45.41,74.43,86.0,100.0,4.07,BR,1609120134.0
119,avarua,-21.21,-159.78,80.6,78.0,47.0,4.7,CK,1609120135.0
120,itarema,-2.92,-39.92,79.45,77.0,16.0,17.27,BR,1609120136.0
121,dikson,73.51,80.55,-16.26,90.0,22.0,7.27,RU,1609120137.0
122,lar,26.2,83.97,54.73,56.0,0.0,1.74,IN,1609120139.0
123,okha,53.57,142.95,-14.24,88.0,100.0,21.07,RU,1609120140.0
124,clarence town,-32.58,151.78,84.0,48.0,76.0,20.8,AU,1609120141.0
125,butterworth,5.4,100.36,80.6,78.0,20.0,2.24,MY,1609120142.0
127,kodiak,57.79,-152.41,37.4,93.0,90.0,20.8,US,1609120143.0
128,khatanga,71.97,102.5,-23.42,86.0,100.0,14.76,RU,1609120145.0
129,sabang,5.89,95.32,81.01,75.0,32.0,4.14,ID,1609120146.0
130,huanan,46.22,130.52,-5.91,86.0,29.0,0.18,CN,1609120147.0
131,zyryanovsk,49.74,84.27,-21.57,79.0,8.0,0.18,KZ,1609120148.0
132,cherskiy,68.75,161.3,-33.36,83.0,0.0,2.51,RU,1609120149.0
133,pevek,69.7,170.31,-23.06,87.0,86.0,3.2,RU,1609120150.0
134,yaya,56.21,86.44,-32.13,81.0,0.0,5.53,RU,1609120152.0
135,ribeira grande,38.52,-28.7,56.82,71.0,100.0,15.23,PT,1609120153.0
136,albany,42.6,-73.97,32.0,69.0,100.0,6.6,US,1609119864.0
137,ambon,-3.7,128.18,89.6,66.0,40.0,4.7,ID,1609120155.0
138,guanica,17.97,-66.91,73.0,92.0,28.0,4.0,PR,1609120156.0
139,umm lajj,25.02,37.27,71.13,60.0,0.0,7.47,SA,1609120157.0
140,caravelas,-17.71,-39.25,74.37,87.0,1.0,4.99,BR,1609120159.0
141,coquimbo,-29.95,-71.34,60.8,87.0,0.0,8.05,CL,1609120160.0
142,salawagan,7.71,125.11,82.36,76.0,100.0,0.58,PH,1609120161.0
143,gao,16.64,1.64,64.63,26.0,92.0,9.98,ML,1609120162.0
144,bulnes,-36.74,-72.3,69.8,64.0,0.0,11.41,CL,1609120073.0
145,japura,-0.32,102.35,80.73,84.0,100.0,2.26,ID,1609120165.0
146,kysyl-syr,63.9,122.76,-2.99,91.0,100.0,9.1,RU,1609120166.0
147,vila franca do campo,37.72,-25.43,53.6,81.0,75.0,2.24,PT,1609120167.0
148,bilgoraj,50.54,22.72,34.0,92.0,100.0,7.0,PL,1609120168.0
150,port-cartier,50.03,-66.87,15.8,61.0,1.0,12.75,CA,1609120169.0
151,cam ranh,11.92,109.16,78.8,69.0,20.0,9.17,VN,1609120036.0
152,castro,-24.79,-50.01,62.26,98.0,18.0,6.22,BR,1609119877.0
153,saldanha,-33.01,17.94,59.0,77.0,0.0,5.82,ZA,1609120173.0
154,nuuk,64.18,-51.72,39.2,93.0,100.0,27.51,GL,1609120174.0
155,katsuura,35.13,140.3,51.01,63.0,100.0,3.0,JP,1609120050.0
157,tucson,32.22,-110.93,66.2,24.0,1.0,6.93,US,1609120143.0
158,hithadhoo,-0.6,73.08,82.09,70.0,94.0,7.07,MV,1609120178.0
159,hermanus,-34.42,19.23,57.0,89.0,39.0,11.03,ZA,1609120180.0
160,wagar,16.15,36.2,69.51,68.0,0.0,11.68,SD,1609120181.0
161,vaini,-21.2,-175.2,82.4,88.0,75.0,3.36,TO,1609120182.0
162,kahului,20.89,-156.47,84.2,48.0,20.0,24.16,US,1609120183.0
163,east london,-33.02,27.91,69.21,69.0,79.0,7.63,ZA,1609120184.0
164,kavaratti,10.57,72.64,81.54,64.0,15.0,7.38,IN,1609120185.0
165,andros town,24.7,-77.77,71.6,60.0,40.0,10.29,BS,1609120187.0
166,poum,-20.23,164.02,80.56,74.0,4.0,9.46,NC,1609120188.0
167,seoul,37.57,126.98,42.8,100.0,1.0,2.35,KR,1609119950.0
168,beyneu,45.32,55.2,25.27,92.0,100.0,10.96,KZ,1609120190.0
169,auki,-8.77,160.7,83.95,76.0,64.0,2.73,SB,1609120191.0
170,georgetown,5.41,100.34,80.6,78.0,20.0,2.24,MY,1609120166.0
171,touros,-5.2,-35.46,77.0,83.0,40.0,8.05,BR,1609120194.0
172,lahat,-3.8,103.53,80.4,71.0,100.0,1.21,ID,1609120195.0
173,the valley,18.22,-63.06,77.0,83.0,20.0,5.82,AI,1609120197.0
174,pak phanang,8.35,100.2,80.6,88.0,20.0,2.24,TH,1609119910.0
175,jijiga,9.35,42.8,55.02,58.0,91.0,5.84,ET,1609120199.0
176,mount gambier,-37.83,140.77,62.6,45.0,90.0,13.87,AU,1609120200.0
178,husavik,66.04,-17.34,32.0,91.0,90.0,23.04,IS,1609120201.0
179,sayat,38.78,63.88,28.56,94.0,0.0,6.55,TM,1609120203.0
180,novonikolayevskaya,45.59,38.37,35.91,90.0,90.0,13.76,RU,1609120204.0
181,thompson,55.74,-97.86,-20.2,75.0,5.0,8.05,CA,1609120205.0
182,sioux lookout,50.1,-91.92,15.8,85.0,90.0,5.82,CA,1609119980.0
183,hasaki,35.73,140.83,52.0,75.0,75.0,4.7,JP,1609120207.0
184,cayenne,4.93,-52.33,77.0,100.0,32.0,10.69,GF,1609120208.0
185,bathsheba,13.22,-59.52,78.8,83.0,75.0,13.87,BB,1609120210.0
186,muli,2.92,73.57,81.25,72.0,5.0,2.33,MV,1609120211.0
187,cabo san lucas,22.89,-109.91,73.4,56.0,5.0,6.93,MX,1609120120.0
188,lompoc,34.64,-120.46,53.6,71.0,1.0,3.36,US,1609120155.0
189,araouane,18.9,-3.53,68.09,24.0,2.0,7.81,ML,1609120214.0
190,viedma,-40.81,-63.0,71.01,80.0,100.0,16.06,AR,1609120216.0
191,luderitz,-26.65,15.16,60.8,77.0,0.0,13.87,NA,1609120217.0
192,dudinka,69.41,86.18,-36.4,73.0,0.0,6.71,RU,1609120218.0
193,bada,51.39,109.87,-17.07,82.0,100.0,9.33,RU,1609120219.0
194,solnechnyy,50.72,136.63,-12.35,82.0,14.0,2.06,RU,1609120220.0
195,rocha,-34.48,-54.33,67.78,92.0,37.0,10.89,UY,1609120222.0
196,alvaraes,-3.22,-64.8,75.51,95.0,100.0,1.66,BR,1609120223.0
198,kolosovka,56.47,73.61,-6.9,87.0,100.0,17.18,RU,1609120224.0
199,bolgatanga,10.79,-0.85,69.51,22.0,86.0,6.33,GH,1609120225.0
200,caluquembe,-13.78,14.68,61.36,91.0,100.0,2.64,AO,1609120226.0
201,saint-pierre,-21.34,55.48,75.2,83.0,20.0,4.7,RE,1609120227.0
202,aksarka,66.56,67.8,-24.41,85.0,100.0,13.67,RU,1609120229.0
203,rodrigues alves,-7.74,-72.65,70.72,99.0,100.0,2.44,BR,1609120230.0
204,nanortalik,60.14,-45.24,38.73,90.0,100.0,19.89,GL,1609120231.0
205,waipawa,-41.41,175.52,59.0,54.0,84.0,24.16,NZ,1609120232.0
206,tessaoua,13.76,7.99,62.55,29.0,1.0,9.78,NE,1609120233.0
207,omegna,45.88,8.41,32.0,73.0,100.0,2.91,IT,1609120235.0
208,mnogovershinnyy,53.94,139.92,-25.44,83.0,98.0,5.77,RU,1609120236.0
209,krasnoselkup,65.7,82.47,-32.91,81.0,0.0,10.76,RU,1609120237.0
210,mahajanga,-15.72,46.32,75.2,94.0,20.0,3.36,MG,1609120238.0
211,lavumisa,-27.31,31.89,73.15,86.0,100.0,3.76,SZ,1609120239.0
212,talaya,61.38,152.75,-29.15,81.0,100.0,0.47,RU,1609120241.0
213,kruisfontein,-34.0,24.73,64.0,80.0,0.0,1.01,ZA,1609120242.0
214,provideniya,64.38,-173.3,9.03,92.0,100.0,27.67,RU,1609120243.0
216,college,64.86,-147.8,-0.4,77.0,90.0,4.43,US,1609120244.0
217,inhambane,-23.86,35.38,76.12,86.0,61.0,3.42,MZ,1609120245.0
218,beringovskiy,63.05,179.32,18.99,96.0,100.0,30.44,RU,1609120247.0
219,ponta do sol,32.67,-17.1,60.8,72.0,20.0,10.29,PT,1609120248.0
220,pak chong,14.71,101.42,82.99,90.0,0.0,1.86,TH,1609120249.0
221,kendari,-3.94,122.5,83.01,76.0,100.0,1.66,ID,1609120251.0
222,carnarvon,-24.87,113.63,102.2,26.0,0.0,16.11,AU,1609120252.0
224,comodoro rivadavia,-45.87,-67.5,77.0,57.0,75.0,11.41,AR,1609120197.0
226,mpika,-11.83,31.45,64.24,95.0,100.0,3.56,ZM,1609120254.0
227,kismayo,-0.36,42.55,78.39,83.0,0.0,17.72,SO,1609120256.0
228,preobrazheniye,42.9,133.91,25.2,86.0,70.0,3.71,RU,1609120257.0
229,buedu,8.28,-10.37,67.03,82.0,0.0,1.68,SL,1609120259.0
230,port lincoln,-34.73,135.87,59.7,56.0,99.0,10.58,AU,1609120260.0
231,berdigestyakh,62.1,126.7,-23.44,85.0,100.0,7.47,RU,1609120261.0
232,warrnambool,-38.38,142.48,63.0,64.0,100.0,9.71,AU,1609120047.0
233,jertih,5.73,102.49,78.8,88.0,20.0,3.36,MY,1609120264.0
234,sudislavl,57.88,41.71,-3.69,91.0,19.0,3.6,RU,1609120265.0
235,tianpeng,30.99,103.94,51.01,1.0,100.0,4.59,CN,1609120108.0
236,severo-kurilsk,50.68,156.12,26.89,96.0,100.0,17.13,RU,1609120267.0
237,kimbe,-5.55,150.14,85.98,71.0,100.0,5.06,PG,1609120269.0
238,laguna,38.42,-121.42,53.6,58.0,1.0,5.1,US,1609120270.0
239,bougouni,11.42,-7.48,71.6,23.0,25.0,5.35,ML,1609120271.0
240,lebu,-37.62,-73.65,59.56,93.0,5.0,9.13,CL,1609120272.0
242,svetlogorsk,52.63,29.73,28.0,94.0,40.0,16.08,BY,1609120274.0
243,zapolyarnyy,69.42,30.81,6.8,77.0,100.0,12.75,RU,1609120275.0
244,huarmey,-10.07,-78.15,69.58,80.0,100.0,7.07,PE,1609120277.0
246,te anau,-45.42,167.72,69.04,38.0,0.0,3.31,NZ,1609120280.0
247,naliya,23.27,68.83,54.55,39.0,0.0,7.0,IN,1609120281.0
248,ndele,8.41,20.65,73.24,34.0,12.0,5.32,CF,1609120282.0
249,bethel,41.37,-73.41,28.99,68.0,1.0,4.7,US,1609120284.0
250,praia da vitoria,38.73,-27.07,55.4,76.0,75.0,9.6,PT,1609120285.0
251,barra do corda,-5.5,-45.25,73.4,93.0,13.0,2.86,BR,1609120286.0
252,bailieborough,53.92,-6.97,37.99,89.0,0.0,5.99,IE,1609120287.0
253,nizhniy tsasuchey,50.52,115.13,-11.9,79.0,100.0,14.27,RU,1609120288.0
254,alofi,-19.06,-169.92,80.6,88.0,75.0,9.17,NU,1609120289.0
255,jesenik,50.23,17.2,36.0,70.0,97.0,11.99,CZ,1609120291.0
256,kondopoga,62.21,34.26,17.6,92.0,100.0,6.71,RU,1609120292.0
257,port elizabeth,-33.92,25.57,62.6,82.0,0.0,8.05,ZA,1609120293.0
258,riyadh,24.69,46.72,46.4,75.0,0.0,4.38,SA,1609120162.0
259,luanda,-8.84,13.23,78.8,83.0,75.0,6.93,AO,1609120295.0
260,mahon,39.89,4.27,57.2,76.0,0.0,28.86,ES,1609120297.0
261,nadvoitsy,63.87,34.32,19.06,95.0,100.0,11.1,RU,1609120298.0
262,atasu,48.68,71.64,-0.22,66.0,0.0,3.67,KZ,1609120299.0
263,vao,-22.67,167.48,77.52,77.0,4.0,11.23,NC,1609120300.0
264,toktogul,41.87,72.94,25.88,75.0,0.0,1.7,KG,1609120096.0
265,coihaique,-45.58,-72.07,64.4,59.0,0.0,2.24,CL,1609120303.0
266,oranjemund,-28.55,16.43,60.96,85.0,2.0,13.51,NA,1609120304.0
267,barcelos,41.54,-8.62,55.4,71.0,40.0,13.87,PT,1609120305.0
269,doclin,45.3,21.65,46.4,70.0,0.0,27.51,RO,1609120306.0
270,calama,-22.47,-68.93,59.0,41.0,0.0,14.99,CL,1609120307.0
272,ostrovnoy,68.05,39.51,1.06,92.0,74.0,5.23,RU,1609120309.0
273,zaria,11.11,7.72,63.81,30.0,81.0,8.39,NG,1609120310.0
274,saint-philippe,-21.36,55.77,75.2,83.0,20.0,4.7,RE,1609120311.0
275,kailua,21.4,-157.74,82.4,65.0,75.0,11.41,US,1609120312.0
276,sartell,45.62,-94.21,17.6,78.0,20.0,6.93,US,1609120132.0
277,topeka,39.05,-95.68,42.8,56.0,90.0,16.11,US,1609120022.0
278,geraldton,-28.77,114.6,91.4,19.0,0.0,21.92,AU,1609120316.0
279,port blair,11.67,92.75,82.13,80.0,32.0,11.23,IN,1609120317.0
280,half moon bay,37.46,-122.43,54.0,81.0,75.0,4.7,US,1609120318.0
281,floro,61.6,5.03,42.8,70.0,95.0,13.87,NO,1609120319.0
282,purpe,64.48,76.69,-27.85,80.0,100.0,20.18,RU,1609120320.0
283,cidreira,-30.18,-50.21,74.08,82.0,72.0,20.22,BR,1609120319.0
284,moron,-34.65,-58.62,79.0,71.0,100.0,5.01,AR,1609120323.0
285,sangar,63.92,127.47,-41.33,78.0,100.0,5.32,RU,1609120324.0
286,doha,25.29,51.53,68.0,72.0,0.0,2.24,QA,1609120137.0
287,sembakung,3.82,117.25,86.76,68.0,59.0,2.01,ID,1609120031.0
288,gat,31.61,34.76,55.99,55.0,3.0,3.0,IL,1609120159.0
289,enshi,30.3,109.48,48.85,71.0,91.0,0.54,CN,1609120329.0
290,fort frances,48.6,-93.4,16.0,78.0,90.0,4.7,CA,1609120330.0
292,guerrero negro,27.98,-114.06,60.01,87.0,0.0,7.07,MX,1609120123.0
293,axim,4.87,-2.24,78.71,87.0,27.0,7.2,GH,1609120332.0
294,feijo,-8.16,-70.35,70.57,98.0,100.0,1.88,BR,1609120333.0
295,panama city,8.99,-79.52,77.0,88.0,100.0,5.82,PA,1609120151.0
296,mackay,-21.15,149.2,86.0,66.0,40.0,14.99,AU,1609120336.0
297,taman,45.21,36.72,39.2,80.0,32.0,20.13,RU,1609120337.0
298,kargasok,59.06,80.86,-22.94,85.0,100.0,14.23,RU,1609120338.0
299,san patricio,28.02,-97.52,68.0,82.0,1.0,11.41,US,1609120339.0
300,faya,18.39,42.45,50.0,82.0,0.0,1.99,SA,1609120340.0
302,dauphin,51.15,-100.05,-7.1,90.0,97.0,2.46,CA,1609120342.0
303,pancol,10.87,119.42,80.94,86.0,95.0,6.55,PH,1609120343.0
304,jieshou,33.26,115.36,51.44,71.0,0.0,6.62,CN,1609120344.0
305,orlik,52.52,99.83,-35.54,69.0,3.0,2.33,RU,1609120345.0
306,ambovombe,-25.17,46.08,74.48,87.0,0.0,5.46,MG,1609120346.0
307,ancud,-41.87,-73.82,61.0,82.0,40.0,5.82,CL,1609120348.0
308,mocuba,-16.84,36.99,72.95,96.0,58.0,1.21,MZ,1609120349.0
309,tadine,-21.55,167.88,81.18,68.0,60.0,13.58,NC,1609120350.0
310,mindelo,16.89,-24.98,71.6,78.0,75.0,12.75,CV,1609120351.0
311,den helder,52.96,4.76,37.0,93.0,91.0,6.93,NL,1609120352.0
312,chongqing,29.56,106.55,46.0,87.0,40.0,2.24,CN,1609120354.0
313,port hardy,50.7,-127.42,44.6,100.0,90.0,4.7,CA,1609120355.0
314,ewa beach,21.32,-158.01,82.4,58.0,75.0,6.93,US,1609120356.0
315,bossier city,32.52,-93.73,64.99,68.0,75.0,5.82,US,1609120357.0
316,jinka,5.65,36.65,61.99,44.0,81.0,3.11,ET,1609120358.0
317,kamyaran,34.8,46.94,30.2,68.0,75.0,4.7,IR,1609120329.0
318,boyabat,41.47,34.77,42.19,75.0,100.0,0.47,TR,1609120361.0
319,komsomolskiy,40.43,71.72,28.4,86.0,90.0,2.24,UZ,1609120362.0
320,kamensk-uralskiy,56.42,61.93,18.21,97.0,96.0,6.22,RU,1609120275.0
321,paita,-5.09,-81.11,67.6,85.0,90.0,10.25,PE,1609120364.0
322,boddam,57.47,-1.78,32.0,70.0,75.0,3.36,GB,1609120365.0
323,ahipara,-35.17,173.17,64.26,53.0,8.0,13.13,NZ,1609120367.0
324,lavrentiya,65.58,-171.0,9.21,91.0,100.0,21.99,RU,1609120368.0
325,vila,42.03,-8.16,44.01,90.0,98.0,11.01,PT,1609120369.0
326,osorno,-40.57,-73.15,66.2,82.0,22.0,2.24,CL,1609120248.0
327,borogontsy,62.67,131.17,-43.2,79.0,100.0,2.98,RU,1609120371.0
328,takoradi,4.88,-1.76,79.02,87.0,23.0,7.05,GH,1609120372.0
329,katobu,-4.94,122.53,80.78,83.0,100.0,0.69,ID,1609120374.0
330,pampas,-12.4,-74.9,47.21,83.0,100.0,3.0,PE,1609120375.0
331,srednekolymsk,67.45,153.68,-31.95,80.0,0.0,1.95,RU,1609120376.0
332,ungheni,47.2,27.8,37.4,100.0,90.0,16.11,MD,1609120377.0
333,tala,30.68,30.94,51.57,74.0,62.0,2.42,EG,1609120378.0
334,dukhovnitskoye,52.48,48.21,13.93,94.0,0.0,7.14,RU,1609120379.0
335,thinadhoo,0.53,72.93,82.49,71.0,46.0,7.67,MV,1609120381.0
336,hutchinson,38.06,-97.93,39.2,64.0,1.0,7.78,US,1609120372.0
337,hambantota,6.12,81.12,71.6,100.0,20.0,2.24,LK,1609120383.0
338,chudovo,59.12,31.68,22.55,97.0,97.0,10.38,RU,1609120384.0
339,ketchikan,55.34,-131.65,35.6,93.0,90.0,3.36,US,1609120385.0
340,nome,64.5,-165.41,27.0,86.0,90.0,25.28,US,1609120386.0
341,beruwala,6.48,79.98,75.88,91.0,8.0,6.13,LK,1609120388.0
342,evensk,61.95,159.23,3.45,83.0,15.0,9.55,RU,1609120389.0
343,opuwo,-18.06,13.84,69.55,48.0,93.0,4.43,NA,1609120390.0
344,omsukchan,62.53,155.8,-28.17,81.0,92.0,4.61,RU,1609120391.0
345,bajil,15.06,43.29,71.22,76.0,0.0,1.45,YE,1609120205.0
346,rodino,52.5,80.25,-14.69,83.0,84.0,8.37,RU,1609120394.0
347,la ronge,55.1,-105.28,1.4,77.0,0.0,4.7,CA,1609120395.0
348,chipinge,-20.19,32.62,64.27,99.0,99.0,3.74,ZW,1609120396.0
349,turukhansk,65.82,87.98,-35.91,81.0,4.0,5.06,RU,1609120397.0
350,udachnyy,66.42,112.4,-5.8,83.0,90.0,8.95,RU,1609120398.0
351,shimoda,34.67,138.95,51.8,87.0,75.0,3.36,JP,1609120399.0
352,mao,39.89,4.27,57.2,76.0,0.0,28.86,ES,1609120297.0
353,saint-francois,46.42,3.91,44.6,70.0,90.0,11.41,FR,1609120402.0
354,mehamn,71.04,27.85,23.76,89.0,100.0,29.8,NO,1609120403.0
355,valdivia,-39.81,-73.25,59.0,87.0,25.0,4.7,CL,1609120164.0
356,chumikan,54.72,135.31,-25.55,74.0,0.0,21.27,RU,1609120405.0
357,smithers,54.78,-127.17,30.2,80.0,90.0,2.24,CA,1609120228.0
358,puerto suarez,-18.95,-57.8,76.3,91.0,99.0,1.97,BO,1609120408.0
359,goderich,43.75,-81.72,35.6,74.0,100.0,12.75,CA,1609120279.0
360,roald,62.58,6.13,44.01,65.0,100.0,5.82,NO,1609120410.0
361,kaitangata,-46.28,169.85,57.99,69.0,8.0,14.0,NZ,1609120411.0
362,bosaso,11.28,49.18,74.82,78.0,36.0,10.71,SO,1609120412.0
363,thessalon,46.25,-83.57,32.0,99.0,90.0,4.7,CA,1609120413.0
364,fairbanks,64.84,-147.72,-0.4,77.0,90.0,4.38,US,1609120415.0
365,altar,30.7,-111.82,64.99,26.0,43.0,5.08,MX,1609120416.0
366,santa rosa,14.31,121.11,84.0,83.0,40.0,3.36,PH,1609120417.0
367,belle glade,26.68,-80.67,63.0,90.0,27.0,1.01,US,1609120418.0
368,male,4.17,73.51,78.8,94.0,40.0,3.36,MV,1609120181.0
369,carauari,-4.88,-66.9,74.16,97.0,100.0,2.28,BR,1609120420.0
370,malartic,48.13,-78.13,15.8,100.0,90.0,12.75,CA,1609120361.0
371,aquiraz,-3.9,-38.39,80.6,78.0,75.0,16.11,BR,1609120423.0
372,iwanai,42.97,140.51,30.85,94.0,96.0,7.81,JP,1609120424.0
373,abu kamal,34.45,40.92,42.76,51.0,0.0,1.01,SY,1609120425.0
374,soskovo,52.75,35.38,13.75,97.0,0.0,6.8,RU,1609120426.0
375,yanam,16.73,82.22,68.0,88.0,47.0,5.82,IN,1609120427.0
376,youhao,47.87,128.83,-4.34,82.0,98.0,2.64,CN,1609120429.0
378,palimbang,6.21,124.19,86.31,61.0,47.0,2.68,PH,1609120430.0
379,road town,18.42,-64.62,77.0,83.0,40.0,4.7,VG,1609120215.0
380,vestmanna,62.16,-7.17,37.4,89.0,100.0,29.97,FO,1609120432.0
381,hwange,-18.37,26.5,71.58,85.0,95.0,0.6,ZW,1609120433.0
382,hirara,24.8,125.28,71.6,73.0,75.0,19.46,JP,1609120435.0
383,mbini,1.57,9.61,78.8,100.0,40.0,5.88,GQ,1609120436.0
384,altay,47.87,88.12,-9.24,60.0,0.0,3.29,CN,1609120437.0
385,mackenzie,55.3,-123.17,28.4,92.0,90.0,1.97,CA,1609120215.0
386,jibuti,11.5,42.5,73.4,73.0,20.0,13.76,DJ,1609120439.0
387,valparaiso,-33.04,-71.63,59.0,93.0,90.0,3.36,CL,1609120408.0
388,mayo,38.89,-76.51,39.0,74.0,1.0,6.93,US,1609120442.0
389,quito,-0.23,-78.52,55.4,93.0,75.0,8.05,EC,1609120311.0
390,marakkanam,12.2,79.95,70.79,85.0,5.0,10.56,IN,1609120444.0
391,formosa do rio preto,-11.05,-45.19,71.73,51.0,0.0,2.73,BR,1609120445.0
392,katesh,-4.52,35.38,57.74,98.0,100.0,5.46,TZ,1609120446.0
394,leh,34.17,77.58,4.12,60.0,100.0,5.21,IN,1609120448.0
395,eskisehir,39.78,30.52,39.2,80.0,0.0,6.93,TR,1609120449.0
396,lagoa,39.05,-27.98,57.15,71.0,100.0,10.0,PT,1609120450.0
397,longyan,25.11,117.02,66.0,65.0,5.0,2.86,CN,1609120451.0
398,tuatapere,-46.13,167.68,69.01,52.0,0.0,8.99,NZ,1609120452.0
399,petropavlovsk-kamchatskiy,53.05,158.65,17.6,57.0,100.0,4.47,RU,1609120453.0
400,miram shah,33.01,70.07,35.37,75.0,0.0,0.83,PK,1609120455.0
401,takapau,-40.03,176.35,57.99,65.0,84.0,5.99,NZ,1609120456.0
402,port moresby,-9.44,147.18,91.4,55.0,5.0,3.36,PG,1609120457.0
403,grand gaube,-20.01,57.66,75.0,88.0,65.0,8.99,MU,1609120458.0
405,neiafu,-18.65,-173.98,84.2,79.0,75.0,8.05,TO,1609120459.0
406,tigzirt,36.89,4.12,49.39,49.0,0.0,15.37,DZ,1609120461.0
408,lebedyan,53.02,39.17,26.6,79.0,75.0,1.57,RU,1609120462.0
409,tessalit,20.2,1.01,58.95,31.0,13.0,7.7,ML,1609120463.0
410,belmonte mezzagno,38.05,13.39,50.0,77.0,57.0,9.13,IT,1609120464.0
411,preeceville,51.95,-102.67,-11.45,89.0,22.0,6.8,CA,1609120465.0
412,zaoyang,32.13,112.75,50.23,57.0,24.0,1.77,CN,1609120259.0
414,north bay,46.32,-79.47,25.0,92.0,90.0,14.99,CA,1609120468.0
415,zelenoborsk,61.47,64.03,-4.23,92.0,100.0,7.56,RU,1609120469.0
416,sibolga,1.74,98.78,83.64,60.0,88.0,0.51,ID,1609120470.0
417,shurugwi,-19.67,30.01,63.77,100.0,88.0,3.38,ZW,1609120471.0
418,neyshabur,36.21,58.8,27.95,78.0,0.0,1.05,IR,1609120472.0
419,shenzhen,22.55,114.07,71.01,79.0,0.0,5.1,CN,1609120428.0
420,malanje,-9.54,16.34,65.1,90.0,100.0,6.22,AO,1609120475.0
421,rock sound,24.9,-76.2,71.24,71.0,6.0,20.0,BS,1609120476.0
422,anadyr,64.75,177.48,14.0,85.0,40.0,49.21,RU,1609120477.0
423,sobolevo,54.43,31.9,22.5,97.0,29.0,12.48,RU,1609120478.0
424,bengkulu,-3.8,102.27,83.12,65.0,92.0,0.83,ID,1609120479.0
425,malinyi,-8.93,36.13,72.82,95.0,100.0,0.49,TZ,1609120481.0
426,burgeo,47.62,-57.62,32.77,86.0,2.0,12.59,CA,1609120482.0
427,marzuq,14.4,46.47,51.4,45.0,3.0,2.82,YE,1609120483.0
428,narsaq,60.92,-46.05,32.0,83.0,100.0,4.7,GL,1609120484.0
429,aykhal,66.0,111.5,-5.8,83.0,90.0,8.95,RU,1609120485.0
431,zhanaozen,43.3,52.8,23.09,91.0,64.0,12.06,KZ,1609120486.0
432,fond du lac,43.77,-88.44,30.2,86.0,90.0,19.46,US,1609120488.0
433,guane,22.2,-84.09,60.13,80.0,0.0,5.97,CU,1609120489.0
434,tazovskiy,67.47,78.7,-33.7,83.0,0.0,10.87,RU,1609120490.0
435,vyartsilya,62.18,30.69,27.39,96.0,100.0,11.56,RU,1609120491.0
436,nakhon si thammarat,8.25,100.0,80.6,88.0,20.0,2.24,TH,1609120492.0
437,khandyga,62.67,135.6,-45.09,78.0,100.0,3.11,RU,1609120493.0
438,singaraja,-8.11,115.09,85.44,64.0,21.0,1.79,ID,1609120495.0
439,tual,-5.67,132.75,79.48,85.0,100.0,9.55,ID,1609120496.0
440,eureka,40.8,-124.16,45.0,86.0,93.0,5.46,US,1609120497.0
442,buribay,51.96,58.16,22.5,97.0,100.0,10.58,RU,1609120498.0
443,ormara,25.21,64.64,59.02,34.0,0.0,16.35,PK,1609120499.0
444,arlit,18.74,7.39,60.06,31.0,4.0,4.38,NE,1609120501.0
445,vanavara,60.34,102.28,-36.65,82.0,26.0,4.14,RU,1609120502.0
447,hovd,48.01,91.64,-7.29,79.0,0.0,1.92,MN,1609120503.0
448,riberalta,-10.98,-66.1,72.05,98.0,99.0,2.39,BO,1609120504.0
449,henties bay,-22.12,14.28,63.0,88.0,78.0,1.99,NA,1609120505.0
450,strezhevoy,60.73,77.59,-16.6,75.0,90.0,17.9,RU,1609120507.0
451,carinhanha,-14.3,-43.77,75.43,55.0,99.0,8.81,BR,1609120508.0
452,samfya,-11.36,29.56,66.88,95.0,100.0,7.81,ZM,1609120509.0
453,goroka,-6.08,145.39,76.42,54.0,95.0,3.69,PG,1609120510.0
454,ulaanbaatar,47.91,106.88,-25.6,60.0,0.0,8.95,MN,1609120511.0
455,soligalich,59.08,42.29,-4.22,90.0,0.0,3.27,RU,1609120513.0
456,los llanos de aridane,28.66,-17.92,64.4,88.0,40.0,4.7,ES,1609120514.0
457,brae,60.4,-1.35,37.4,70.0,100.0,4.7,GB,1609120515.0
459,high level,58.52,-117.14,5.0,92.0,90.0,2.71,CA,1609120516.0
460,hualmay,-11.1,-77.61,69.22,84.0,99.0,5.99,PE,1609120517.0
462,rawson,-43.3,-65.1,70.61,63.0,39.0,5.44,AR,1609120291.0
463,camacha,33.08,-16.33,59.0,72.0,40.0,5.82,PT,1609120520.0
464,presidencia roque saenz pena,-26.79,-60.44,78.98,57.0,5.0,5.17,AR,1609120521.0
465,cifuentes,22.64,-80.05,66.2,88.0,75.0,5.82,CU,1609120522.0
466,rodney,42.57,-81.68,41.0,80.0,20.0,21.92,CA,1609120523.0
467,karratha,-20.74,116.85,88.57,57.0,86.0,12.35,AU,1609120524.0
468,sambava,-14.27,50.17,76.78,89.0,100.0,6.2,MG,1609120526.0
469,constitucion,-35.33,-72.42,57.78,92.0,20.0,8.34,CL,1609120527.0
470,chicama,-7.84,-79.15,70.66,72.0,99.0,4.99,PE,1609120528.0
471,lyubar,49.92,27.76,33.04,90.0,100.0,20.51,UA,1609120529.0
472,novodugino,55.63,34.28,16.56,97.0,100.0,8.3,RU,1609120530.0
473,lagos,6.58,3.75,78.8,88.0,20.0,4.7,NG,1609120531.0
474,ambatondrazaka,-17.83,48.42,68.13,92.0,100.0,1.92,MG,1609120533.0
475,maceio,-9.67,-35.74,75.2,88.0,75.0,5.82,BR,1609120422.0
476,alta floresta,-9.88,-56.09,70.57,94.0,100.0,3.13,BR,1609120535.0
477,asau,46.43,26.4,36.0,81.0,100.0,3.29,RO,1609120536.0
478,longyearbyen,78.22,15.64,23.0,67.0,75.0,24.16,SJ,1609120399.0
479,humaita,-7.51,-63.02,72.5,98.0,100.0,2.64,BR,1609120538.0
480,trofors,65.53,13.41,42.8,92.0,100.0,28.86,NO,1609120540.0
481,canby,45.26,-122.69,46.4,61.0,1.0,10.29,US,1609120541.0
482,matara,5.95,80.54,76.17,87.0,12.0,4.03,LK,1609120542.0
483,lieksa,63.32,30.02,27.75,96.0,100.0,14.9,FI,1609120543.0
485,morant bay,17.88,-76.41,80.6,69.0,20.0,6.93,JM,1609120545.0
486,termoli,41.99,14.99,36.0,86.0,100.0,1.01,IT,1609120330.0
487,pasighat,28.07,95.33,60.73,38.0,4.0,1.95,IN,1609120547.0
488,kavieng,-2.57,150.8,85.69,63.0,20.0,8.5,PG,1609120548.0
489,pitimbu,-7.47,-34.81,78.8,83.0,40.0,12.75,BR,1609120549.0
490,oistins,13.07,-59.53,78.8,83.0,75.0,13.87,BB,1609120550.0
491,promyshlennaya,54.92,85.64,-40.0,65.0,20.0,4.47,RU,1609120552.0
492,shediac,46.22,-64.54,19.4,79.0,5.0,3.36,CA,1609120553.0
493,baihar,22.1,80.55,57.61,50.0,0.0,2.44,IN,1609120554.0
494,tongling,30.95,117.78,52.38,74.0,0.0,3.67,CN,1609120555.0
495,blenheim,-41.52,173.95,63.0,59.0,73.0,4.0,NZ,1609120556.0
496,hella,67.2,14.43,39.2,64.0,75.0,31.09,NO,1609120558.0
497,buta,2.79,24.73,70.47,88.0,93.0,2.13,CD,1609120559.0
498,ewo,-0.87,14.82,74.16,81.0,100.0,5.93,CG,1609120560.0
499,manokwari,-0.87,134.08,82.26,72.0,100.0,3.42,ID,1609120561.0
500,kemijarvi,66.71,27.43,24.62,97.0,100.0,10.58,FI,1609120562.0
501,sitka,57.05,-135.33,37.4,93.0,90.0,4.76,US,1609120563.0
502,san quintin,30.48,-115.95,59.43,76.0,75.0,9.22,MX,1609120565.0
503,yizheng,24.67,103.43,48.43,88.0,79.0,8.55,CN,1609120566.0
504,khed,17.72,73.38,69.22,66.0,48.0,2.53,IN,1609120567.0
505,hami,42.8,93.45,14.14,83.0,0.0,10.25,CN,1609120568.0
506,omboue,-1.57,9.26,77.05,89.0,94.0,2.86,GA,1609120569.0
507,mahibadhoo,3.78,72.97,81.75,68.0,9.0,4.61,MV,1609120571.0
508,sept-iles,50.2,-66.38,15.8,61.0,11.0,12.75,CA,1609120502.0
509,salalah,17.02,54.09,71.6,64.0,0.0,11.41,OM,1609120534.0
510,harper,4.38,-7.72,78.15,85.0,100.0,6.67,LR,1609120574.0
511,puerto el triunfo,13.28,-88.55,73.4,88.0,0.0,2.24,SV,1609120575.0
512,koungou,-12.73,45.2,82.4,74.0,40.0,10.29,YT,1609120576.0
513,bubaque,11.28,-15.83,78.98,77.0,1.0,12.62,GW,1609120578.0
514,jumla,29.27,82.18,32.18,63.0,0.0,6.93,NP,1609120579.0
515,pochutla,15.74,-96.47,75.2,73.0,5.0,1.99,MX,1609120580.0
516,santa fe,-31.63,-60.7,84.99,61.0,34.0,1.99,AR,1609120581.0
517,byron bay,-28.65,153.62,87.01,54.0,46.0,13.87,AU,1609120503.0
518,aldan,58.6,125.39,-29.69,83.0,100.0,6.6,RU,1609120583.0
519,dir,35.21,71.88,33.06,72.0,99.0,2.62,PK,1609120585.0
520,azare,11.68,10.19,64.13,29.0,85.0,7.54,NG,1609120586.0
521,oros,-6.24,-38.91,80.17,59.0,3.0,4.97,BR,1609120587.0
523,beaver dam,43.46,-88.84,30.99,100.0,90.0,18.34,US,1609120588.0
524,gisborne,-38.65,178.0,63.0,62.0,76.0,11.01,NZ,1609120589.0
525,rio gallegos,-51.62,-69.22,64.4,18.0,0.0,13.87,AR,1609120590.0
526,gornopravdinsk,60.05,69.9,3.29,93.0,100.0,11.39,RU,1609120592.0
527,redwater,33.36,-94.25,62.6,67.0,1.0,5.82,US,1609120593.0
528,makakilo city,21.35,-158.09,82.4,58.0,75.0,6.93,US,1609120594.0
529,broken hill,-31.95,141.43,66.2,23.0,6.0,18.34,AU,1609120595.0
531,puksoozero,62.59,40.61,-1.61,93.0,50.0,4.68,RU,1609120596.0
532,bintulu,3.17,113.03,82.4,83.0,20.0,4.7,MY,1609120515.0
533,garissa,-0.45,39.64,75.38,75.0,67.0,3.83,KE,1609120599.0
534,teeli,51.03,90.23,-24.36,74.0,0.0,0.2,RU,1609120600.0
535,aksu,41.12,80.26,16.5,90.0,0.0,2.15,CN,1609120601.0
536,olafsvik,64.89,-23.71,32.92,88.0,71.0,26.06,IS,1609120602.0
537,nayudupeta,13.9,79.9,68.0,88.0,40.0,4.56,IN,1609120604.0
538,buin,-33.73,-70.75,71.6,53.0,0.0,9.17,CL,1609120605.0
539,tonj,7.27,28.68,73.08,42.0,23.0,4.18,SS,1609120606.0
540,willmar,45.12,-95.04,15.8,78.0,1.0,9.17,US,1609120587.0
541,fuerte olimpo,-21.04,-57.87,82.94,47.0,3.0,0.2,PY,1609120608.0
542,sakassou,7.45,-5.29,80.6,36.0,91.0,2.24,CI,1609120609.0
543,kayerkan,69.35,87.76,-34.6,65.0,0.0,6.71,RU,1609120611.0
544,houma,29.6,-90.72,55.99,87.0,1.0,6.93,US,1609120612.0
546,lata,40.16,-8.33,55.0,91.0,100.0,5.99,PT,1609120613.0
547,tarnogskiy gorodok,60.5,43.58,-6.84,90.0,0.0,3.53,RU,1609120614.0
548,shieli,44.17,66.75,18.64,96.0,1.0,4.05,KZ,1609120615.0
550,hailar,49.2,119.7,-14.67,87.0,1.0,8.28,CN,1609120617.0
551,jimma,7.67,36.83,56.75,55.0,53.0,1.23,ET,1609120618.0
552,falavarjan,32.56,51.51,26.6,79.0,0.0,6.93,IR,1609120619.0
553,aracataca,10.59,-74.19,78.01,79.0,2.0,0.16,CO,1609120620.0
554,long xuyen,10.38,105.42,80.6,88.0,20.0,2.24,VN,1609120479.0
555,kirakira,-10.45,161.92,84.04,76.0,100.0,4.76,SB,1609120622.0
556,oussouye,12.48,-16.55,75.2,78.0,0.0,2.24,SN,1609120624.0
557,ariquemes,-9.91,-63.04,71.11,99.0,100.0,2.8,BR,1609120625.0
558,metes,46.1,23.42,48.2,76.0,0.0,17.22,RO,1609120626.0
559,chambas,22.19,-78.91,73.4,73.0,75.0,10.29,CU,1609120627.0
560,karaton,-6.34,106.1,88.0,74.0,20.0,8.05,ID,1609120628.0
561,besikduzu,41.05,39.23,48.2,57.0,0.0,2.24,TR,1609120629.0
562,megion,61.03,76.11,-16.6,75.0,90.0,17.9,RU,1609120631.0
563,manama,26.22,50.58,64.4,77.0,0.0,4.7,BH,1609120632.0
564,north myrtle beach,33.82,-78.68,42.8,100.0,1.0,4.74,US,1609120479.0
565,rabo de peixe,37.8,-25.58,53.6,81.0,75.0,2.24,PT,1609120634.0
566,walvis bay,-22.96,14.51,63.0,82.0,63.0,8.05,NA,1609120635.0
567,pucallpa,-8.38,-74.55,71.78,96.0,100.0,2.75,PE,1609120636.0
568,yulara,-25.24,130.99,78.8,34.0,0.0,14.99,AU,1609120638.0
569,chimore,-16.98,-65.13,76.19,77.0,98.0,4.47,BO,1609120639.0
570,sarangani,5.4,125.46,83.43,73.0,97.0,8.81,PH,1609120640.0
571,mitsamiouli,-11.38,43.28,82.38,75.0,100.0,10.07,KM,1609120641.0
572,kerrville,30.05,-99.14,61.0,58.0,1.0,7.31,US,1609120621.0
574,troy,42.61,-83.15,39.99,92.0,90.0,5.82,US,1609120644.0
575,hobyo,5.35,48.53,77.29,77.0,30.0,16.87,SO,1609120645.0
576,broome,42.25,-75.83,28.99,68.0,1.0,9.17,US,1609120646.0
577,jiaocheng,24.68,116.14,73.08,54.0,0.0,1.92,CN,1609120647.0
578,eyl,7.98,49.82,75.13,70.0,23.0,18.95,SO,1609120648.0
580,kushima,31.46,131.23,55.4,82.0,20.0,2.24,JP,1609120650.0
582,coahuayana,18.73,-103.68,69.8,77.0,40.0,2.35,MX,1609120651.0
583,leningradskiy,69.38,178.42,-11.94,78.0,0.0,2.21,RU,1609120652.0
584,vigeland,58.08,7.3,42.01,85.0,100.0,5.01,NO,1609120653.0
585,furano,43.28,142.47,19.4,57.0,75.0,2.24,JP,1609120654.0
586,matagami,49.75,-77.63,12.2,92.0,90.0,8.05,CA,1609120655.0
587,gusinoye ozero,51.11,106.26,-11.76,79.0,100.0,10.02,RU,1609120657.0
588,kambove,-10.88,26.6,62.91,100.0,100.0,0.49,CD,1609120658.0
589,ust-kuyga,70.02,135.6,-2.27,91.0,100.0,7.83,RU,1609120659.0
590,dunedin,-45.87,170.5,57.15,64.0,14.0,16.69,NZ,1609120660.0
591,ponta delgada,37.73,-25.67,53.6,81.0,75.0,2.24,PT,1609120661.0
592,braco do norte,-28.27,-49.17,67.21,94.0,31.0,0.98,BR,1609120662.0
593,woodward,36.43,-99.39,42.8,62.0,1.0,6.93,US,1609120664.0
594,skelleftea,64.75,20.95,35.6,95.0,100.0,12.75,SE,1609120665.0
595,pauini,-7.71,-66.98,72.88,98.0,100.0,0.69,BR,1609120666.0
596,teahupoo,-17.83,-149.27,86.0,66.0,75.0,10.29,PF,1609120667.0
597,tanout,14.97,8.89,60.51,32.0,0.0,10.96,NE,1609120668.0
598,ous,60.91,61.52,-11.49,90.0,100.0,9.19,RU,1609120670.0
599,nuristan,35.3,70.83,-1.66,74.0,0.0,11.77,AF,1609120671.0
600,nizwa,22.93,57.53,51.94,45.0,50.0,2.04,OM,1609120672.0
601,bima,-8.47,118.72,87.4,65.0,100.0,2.04,ID,1609120563.0
602,bakchar,57.02,82.07,-24.39,84.0,100.0,7.29,RU,1609120674.0
603,tupiza,-21.45,-65.72,58.98,57.0,23.0,5.53,BO,1609120676.0
604,ucluelet,48.93,-125.55,44.01,93.0,90.0,3.36,CA,1609120550.0
605,bonavista,48.65,-53.11,32.0,83.0,14.0,5.82,CA,1609120678.0
606,erenhot,43.65,111.98,-3.03,89.0,100.0,13.8,CN,1609120679.0
607,novochernorechenskiy,56.27,91.08,-31.77,81.0,0.0,3.44,RU,1609120681.0
609,eten,-6.91,-79.86,68.83,81.0,74.0,9.95,PE,1609120682.0
610,bonnyville,54.27,-110.73,10.4,85.0,90.0,3.36,CA,1609120683.0
612,cotonou,6.37,2.42,80.6,83.0,20.0,5.82,BJ,1609120577.0
