City,Lat,Lng,Max Temp,Humidity,Cloudiness,Wind Speed,Country,Date
vila franca do campo,37.72,-25.43,59.0,87.0,75.0,23.04,PT,1609623025.0
chokurdakh,70.63,147.92,-31.09,84.0,6.0,4.85,RU,1609623026.0
cape town,-33.93,18.42,69.8,56.0,0.0,20.8,ZA,1609623027.0
sitka,57.05,-135.33,42.8,60.0,90.0,16.11,US,1609623028.0
suriapet,17.15,79.62,62.2,90.0,87.0,2.75,IN,1609623029.0
ushuaia,-54.8,-68.3,57.2,64.0,40.0,20.8,AR,1609623031.0
ponta do sol,32.67,-17.1,59.0,54.0,75.0,9.17,PT,1609622773.0
fortuna,40.6,-124.16,55.99,81.0,20.0,14.99,US,1609622779.0
portland,45.52,-122.68,50.0,90.0,100.0,5.01,US,1609622331.0
mataura,-46.19,168.86,53.01,97.0,100.0,5.99,NZ,1609622778.0
sopot,54.44,18.56,30.99,100.0,90.0,6.93,PL,1609623036.0
burns lake,54.23,-125.75,33.8,84.0,12.0,4.7,CA,1609623038.0
bethel,41.37,-73.41,46.4,52.0,1.0,18.34,US,1609623039.0
mangaldai,26.43,92.03,51.8,93.0,40.0,4.83,IN,1609623040.0
new norfolk,-42.78,147.06,62.01,68.0,100.0,1.99,AU,1609622804.0
paramonga,-10.67,-77.83,70.93,79.0,78.0,9.66,PE,1609623042.0
labuhan,-6.88,112.21,78.42,83.0,100.0,7.47,ID,1609623044.0
butaritari,3.07,172.79,81.41,81.0,0.0,18.07,KI,1609622801.0
rikitea,-23.12,-134.97,78.28,69.0,3.0,9.6,PF,1609622775.0
saskylakh,71.92,114.08,-34.24,82.0,66.0,6.38,RU,1609622826.0
busselton,-33.65,115.33,57.99,69.0,78.0,1.01,AU,1609623048.0
barrow,71.29,-156.79,-7.6,83.0,90.0,9.17,US,1609623049.0
hithadhoo,-0.6,73.08,82.26,77.0,42.0,10.22,MV,1609623051.0
punta arenas,-53.15,-70.92,57.2,50.0,40.0,19.46,CL,1609622788.0
scottsboro,34.67,-86.03,60.8,55.0,1.0,9.17,US,1609623053.0
nome,64.5,-165.41,17.6,61.0,1.0,4.7,US,1609623054.0
ulladulla,-35.35,150.47,66.2,100.0,90.0,3.36,AU,1609623055.0
hermanus,-34.42,19.23,66.0,79.0,1.0,5.01,ZA,1609623057.0
qaanaaq,77.48,-69.36,-3.39,78.0,0.0,2.17,GL,1609623058.0
vaini,-21.2,-175.2,80.6,88.0,75.0,9.17,TO,1609623059.0
avarua,-21.21,-159.78,84.2,79.0,24.0,17.22,CK,1609622777.0
bambous virieux,-20.34,57.76,77.0,69.0,40.0,17.22,MU,1609623061.0
at-bashi,41.17,75.81,-0.13,53.0,0.0,0.94,KG,1609623063.0
bredasdorp,-34.53,20.04,66.2,77.0,8.0,8.05,ZA,1609622788.0
hilo,19.73,-155.09,78.8,65.0,40.0,5.14,US,1609622813.0
hals,57.0,10.31,33.01,97.0,99.0,7.67,DK,1609623066.0
norrtalje,59.76,18.7,34.0,89.0,40.0,8.05,SE,1609622906.0
tezu,27.92,96.17,57.49,32.0,74.0,3.42,IN,1609623069.0
port elizabeth,-33.92,25.57,69.8,83.0,0.0,18.34,ZA,1609623070.0
beloha,-25.17,45.05,75.27,73.0,23.0,19.24,MG,1609622850.0
nouakchott,18.09,-15.98,68.0,68.0,0.0,8.05,MR,1609623072.0
rasinari,45.7,24.07,42.8,56.0,0.0,2.24,RO,1609623073.0
tukrah,32.53,20.58,62.01,46.0,68.0,23.26,LY,1609623074.0
tautira,-17.73,-149.15,86.0,58.0,20.0,9.17,PF,1609623076.0
tuktoyaktuk,69.45,-133.04,-4.0,76.0,75.0,14.99,CA,1609623077.0
muros,42.78,-9.06,39.0,94.0,5.0,7.78,ES,1609623078.0
hobart,-42.88,147.33,62.01,82.0,75.0,3.36,AU,1609622787.0
henties bay,-22.12,14.28,64.0,94.0,100.0,11.39,NA,1609623080.0
castro,-24.79,-50.01,65.95,88.0,2.0,5.23,BR,1609623048.0
korla,41.76,86.15,16.0,88.0,55.0,13.87,CN,1609623083.0
college,64.86,-147.8,-7.01,83.0,75.0,2.77,US,1609623076.0
provideniya,64.38,-173.3,2.28,84.0,75.0,22.32,RU,1609623085.0
gat,31.61,34.76,57.99,82.0,0.0,2.24,IL,1609623086.0
cabo san lucas,22.89,-109.91,73.99,46.0,20.0,5.82,MX,1609623087.0
rio grande,-32.03,-52.1,77.0,50.0,40.0,13.87,BR,1609623089.0
albany,42.6,-73.97,37.99,73.0,52.0,11.01,US,1609622999.0
surenavan,39.75,44.8,19.4,92.0,90.0,2.33,AM,1609623091.0
dudinka,69.41,86.18,-13.0,75.0,90.0,17.9,RU,1609623092.0
noshiro,40.2,140.02,26.55,93.0,100.0,7.07,JP,1609623093.0
namatanai,-3.67,152.43,83.41,68.0,99.0,3.13,PG,1609623094.0
nishihara,26.18,127.76,60.8,67.0,75.0,10.29,JP,1609623096.0
saldanha,-33.01,17.94,73.4,46.0,0.0,6.93,ZA,1609623097.0
athabasca,54.72,-113.29,26.6,73.0,49.0,3.36,CA,1609622817.0
georgetown,5.41,100.34,78.8,83.0,40.0,3.85,MY,1609623013.0
kapaa,22.08,-159.32,78.8,65.0,20.0,17.22,US,1609622819.0
yulara,-25.24,130.99,77.0,44.0,80.0,19.46,AU,1609623101.0
grand gaube,-20.01,57.66,75.0,73.0,9.0,5.99,MU,1609622805.0
stepantsevo,56.13,41.7,32.14,99.0,100.0,4.43,RU,1609623104.0
walvis bay,-22.96,14.51,64.0,93.0,100.0,5.82,NA,1609623105.0
tasiilaq,65.61,-37.64,30.2,92.0,100.0,27.51,GL,1609623106.0
heinola,61.21,26.04,28.4,100.0,90.0,8.05,FI,1609623107.0
lagoa,39.05,-27.98,60.12,86.0,100.0,33.82,PT,1609622810.0
vardo,70.37,31.11,29.08,94.0,91.0,8.93,NO,1609623110.0
bengkulu,-3.8,102.27,75.2,88.0,84.0,3.36,ID,1609623111.0
tadine,-21.55,167.88,81.81,75.0,100.0,2.89,NC,1609623112.0
bafq,31.61,55.41,38.3,58.0,0.0,0.13,IR,1609622841.0
saint george,37.1,-113.58,48.99,39.0,1.0,1.81,US,1609623114.0
puerto ayora,-0.74,-90.35,80.6,65.0,0.0,12.75,EC,1609623116.0
goderich,43.75,-81.72,33.8,80.0,4.0,5.82,CA,1609623046.0
dikson,73.51,80.55,13.03,96.0,100.0,14.09,RU,1609623118.0
la ronge,55.1,-105.28,19.4,85.0,95.0,5.82,CA,1609623119.0
alofi,-19.06,-169.92,80.6,88.0,98.0,5.82,NU,1609622835.0
stepnyak,52.83,70.78,-25.91,86.0,37.0,5.32,KZ,1609623121.0
chabahar,25.29,60.64,51.8,21.0,0.0,2.24,IR,1609623123.0
bluff,-46.6,168.33,53.01,97.0,100.0,5.99,NZ,1609623124.0
arraial do cabo,-22.97,-42.03,77.0,83.0,75.0,4.7,BR,1609623125.0
san patricio,28.02,-97.52,64.0,42.0,1.0,6.93,US,1609623126.0
jamestown,42.1,-79.24,33.01,100.0,90.0,2.13,US,1609623127.0
finote selam,10.7,37.27,62.13,44.0,75.0,5.41,ET,1609623128.0
carupano,10.67,-63.26,76.87,77.0,6.0,11.86,VE,1609623130.0
biak,-0.91,122.88,77.49,77.0,98.0,3.58,ID,1609623131.0
homer,59.64,-151.55,26.01,79.0,1.0,5.82,US,1609623132.0
iqaluit,63.75,-68.51,-14.01,75.0,20.0,2.24,CA,1609623133.0
minab,27.15,57.08,55.4,22.0,0.0,6.93,IR,1609623072.0
yellowknife,62.46,-114.35,-23.8,74.0,75.0,11.41,CA,1609623015.0
gornopravdinsk,60.05,69.9,-26.72,85.0,33.0,5.01,RU,1609623137.0
altamira,-3.2,-52.21,86.0,70.0,20.0,3.36,BR,1609622987.0
atuona,-9.8,-139.03,77.86,77.0,24.0,20.76,PF,1609623139.0
thompson,55.74,-97.86,10.4,92.0,90.0,8.05,CA,1609623140.0
ribeira grande,38.52,-28.7,60.8,93.0,75.0,27.51,PT,1609623141.0
lebu,-37.62,-73.65,61.12,79.0,3.0,17.09,CL,1609623142.0
saint-philippe,-21.36,55.77,77.0,69.0,0.0,20.8,RE,1609623144.0
nalut,30.33,10.85,46.09,51.0,0.0,5.93,LY,1609623145.0
ahipara,-35.17,173.17,71.1,63.0,99.0,4.54,NZ,1609623146.0
burnie,-41.07,145.92,59.0,74.0,100.0,8.01,AU,1609623147.0
carnarvon,-24.87,113.63,75.2,100.0,0.0,11.41,AU,1609623148.0
port alfred,-33.59,26.89,66.99,85.0,7.0,1.01,ZA,1609623149.0
majene,-3.54,118.97,78.06,78.0,100.0,3.44,ID,1609623151.0
grindavik,63.84,-22.43,44.6,100.0,90.0,20.8,IS,1609623152.0
vao,-22.67,167.48,77.85,81.0,100.0,0.67,NC,1609623153.0
laguna,38.42,-121.42,52.0,87.0,90.0,5.82,US,1609623082.0
bathsheba,13.22,-59.52,80.6,57.0,20.0,19.46,BB,1609623155.0
torbay,47.67,-52.73,27.0,73.0,90.0,6.93,CA,1609623156.0
mao,39.89,4.27,41.0,86.0,20.0,6.93,ES,1609623158.0
praia da vitoria,38.73,-27.07,60.01,87.0,75.0,33.69,PT,1609622905.0
vanimo,-2.67,141.3,80.06,82.0,100.0,6.02,PG,1609623160.0
tiarei,-17.53,-149.33,86.0,58.0,20.0,9.17,PF,1609623161.0
bowen,-20.02,148.23,80.6,78.0,67.0,8.05,AU,1609623162.0
mar del plata,-38.0,-57.56,82.4,51.0,0.0,13.87,AR,1609623164.0
kerman,30.28,57.08,21.2,44.0,0.0,4.7,IR,1609623165.0
imperia,43.97,7.78,46.99,75.0,90.0,19.46,IT,1609623166.0
brae,60.4,-1.35,39.2,80.0,41.0,17.22,GB,1609623167.0
baherden,38.44,57.43,33.78,78.0,0.0,3.51,TM,1609623168.0
narsaq,60.92,-46.05,28.4,86.0,100.0,5.82,GL,1609623170.0
chato,-2.64,31.77,66.9,91.0,98.0,4.18,TZ,1609623171.0
tiksi,71.69,128.87,-23.8,87.0,100.0,6.38,RU,1609623172.0
banda aceh,5.56,95.32,77.52,83.0,98.0,12.97,ID,1609623173.0
clyde river,70.47,-68.59,-20.2,75.0,20.0,6.93,CA,1609623174.0
chapais,49.78,-74.85,23.0,85.0,90.0,4.7,CA,1609623159.0
longyearbyen,78.22,15.64,30.2,80.0,75.0,1.12,SJ,1609623177.0
coquimbo,-29.95,-71.34,66.2,68.0,20.0,13.87,CL,1609623178.0
grand-santi,4.25,-54.38,74.79,95.0,90.0,4.09,GF,1609623179.0
buraydah,26.33,43.98,59.0,93.0,0.0,8.05,SA,1609623180.0
kodiak,57.79,-152.41,32.0,99.0,90.0,21.92,US,1609623181.0
luderitz,-26.65,15.16,64.4,72.0,100.0,8.05,NA,1609623183.0
asfi,32.3,-9.24,54.41,61.0,40.0,14.72,MA,1609623184.0
senno,59.53,33.92,32.0,94.0,99.0,3.0,RU,1609623185.0
port hawkesbury,45.62,-61.35,30.2,92.0,90.0,18.34,CA,1609623186.0
springbok,-29.66,17.89,67.98,76.0,96.0,27.56,ZA,1609623187.0
los llanos de aridane,28.66,-17.92,62.6,72.0,20.0,6.93,ES,1609623189.0
east london,-33.02,27.91,68.58,78.0,24.0,16.53,ZA,1609623190.0
remanso,-9.62,-42.08,81.54,60.0,97.0,1.88,BR,1609623191.0
ponta delgada,37.73,-25.67,59.0,87.0,75.0,23.04,PT,1609623192.0
mikuni,36.22,136.15,32.0,90.0,75.0,2.8,JP,1609623004.0
waipawa,-41.41,175.52,66.99,72.0,90.0,17.22,NZ,1609623194.0
erzin,36.96,36.2,57.0,60.0,3.0,11.01,TR,1609623196.0
shenjiamen,29.96,122.3,49.48,66.0,91.0,9.01,CN,1609623197.0
skelleftea,64.75,20.95,19.4,92.0,33.0,5.82,SE,1609623198.0
monroe,43.15,-77.68,36.0,80.0,75.0,10.29,US,1609623060.0
nikolskoye,59.7,30.79,33.8,86.0,90.0,11.18,RU,1609623200.0
chongwe,-15.33,28.68,64.29,95.0,99.0,5.64,ZM,1609623202.0
jasper,37.2,-94.35,30.2,92.0,90.0,9.17,US,1609623203.0
dunedin,-45.87,170.5,60.24,84.0,100.0,7.2,NZ,1609623204.0
manggar,-2.88,108.27,78.15,88.0,100.0,6.67,ID,1609623205.0
methoni,36.82,21.7,60.01,76.0,100.0,21.92,GR,1609623207.0
bilibino,68.05,166.44,-10.55,85.0,100.0,3.6,RU,1609623208.0
port blair,11.67,92.75,78.46,77.0,99.0,10.6,IN,1609623209.0
paamiut,61.99,-49.67,28.98,95.0,100.0,9.71,GL,1609623042.0
hvide sande,56.0,8.13,32.0,73.0,21.0,13.51,DK,1609623211.0
lasa,46.62,10.7,33.01,100.0,90.0,3.36,IT,1609623213.0
beringovskiy,63.05,179.32,18.59,97.0,100.0,24.63,RU,1609623214.0
deputatskiy,69.3,139.9,-33.97,86.0,49.0,0.74,RU,1609623215.0
constantine,36.37,6.61,39.2,69.0,40.0,9.17,DZ,1609623216.0
margate,51.38,1.39,39.0,82.0,100.0,4.0,GB,1609623178.0
canchungo,12.07,-16.03,78.8,69.0,0.0,4.7,GW,1609623219.0
eirunepe,-6.66,-69.87,83.98,77.0,47.0,1.52,BR,1609623220.0
passa quatro,-22.39,-44.97,71.6,88.0,75.0,2.24,BR,1609623221.0
mahon,39.89,4.27,41.0,86.0,20.0,6.93,ES,1609623222.0
codrington,-38.27,141.97,62.35,92.0,100.0,14.25,AU,1609623223.0
belaya gora,68.53,146.42,-35.75,83.0,26.0,1.83,RU,1609623224.0
thinadhoo,0.53,72.93,82.24,75.0,55.0,8.86,MV,1609623226.0
lewiston,44.1,-70.21,33.8,86.0,90.0,8.05,US,1609623227.0
hervey bay,-25.3,152.85,75.99,86.0,5.0,3.0,AU,1609623228.0
aguas verdes,-3.48,-80.25,84.2,69.0,75.0,8.05,PE,1609623229.0
chuy,-33.7,-53.46,68.05,63.0,0.0,9.95,UY,1609623230.0
geraldton,-28.77,114.6,77.0,41.0,0.0,10.29,AU,1609623231.0
taloda,21.57,74.22,70.41,75.0,54.0,4.21,IN,1609622954.0
vestmannaeyjar,63.44,-20.27,46.09,96.0,100.0,16.62,IS,1609623234.0
chimbote,-9.09,-78.58,71.82,75.0,53.0,10.98,PE,1609623235.0
faanui,-16.48,-151.75,79.92,77.0,0.0,16.08,PF,1609623236.0
corcoran,36.1,-119.56,60.01,54.0,75.0,1.32,US,1609623237.0
adrar,20.5,-10.07,62.38,29.0,0.0,8.81,MR,1609623238.0
dingle,11.0,122.67,75.99,92.0,100.0,7.61,PH,1609623240.0
okhtyrka,50.31,34.9,31.91,96.0,3.0,5.99,UA,1609623241.0
mogadishu,2.04,45.34,76.89,77.0,100.0,20.31,SO,1609623014.0
alenquer,-1.94,-54.74,87.8,70.0,20.0,8.05,BR,1609623243.0
ancud,-41.87,-73.82,69.8,64.0,40.0,5.82,CL,1609623244.0
porto novo,6.5,2.6,84.2,83.0,40.0,12.75,BJ,1609623245.0
mazarron,37.6,-1.31,48.0,42.0,0.0,6.93,ES,1609623247.0
barra do bugres,-15.07,-57.18,78.69,74.0,66.0,7.36,BR,1609623171.0
airai,-8.93,125.41,62.6,100.0,64.0,0.87,TL,1609623249.0
urusha,54.05,122.9,-21.21,83.0,0.0,3.8,RU,1609623250.0
severo-kurilsk,50.68,156.12,26.04,93.0,100.0,33.29,RU,1609623251.0
hasaki,35.73,140.83,24.8,85.0,20.0,2.24,JP,1609623253.0
olafsvik,64.89,-23.71,42.58,96.0,100.0,19.8,IS,1609623254.0
ilulissat,69.22,-51.1,17.6,61.0,81.0,6.93,GL,1609623255.0
ranong,9.97,98.63,73.53,79.0,65.0,6.96,TH,1609623256.0
neiafu,-18.65,-173.98,80.6,83.0,75.0,4.7,TO,1609623257.0
pangkalanbuun,-2.68,111.62,74.14,97.0,100.0,2.13,ID,1609623259.0
dali,25.7,100.18,38.61,73.0,91.0,3.42,CN,1609623260.0
pevek,69.7,170.31,-9.45,84.0,94.0,2.21,RU,1609623261.0
manthani,18.65,79.67,63.57,76.0,41.0,3.44,IN,1609623262.0
pochutla,15.74,-96.47,88.0,58.0,20.0,11.41,MX,1609623264.0
derzhavinsk,51.1,66.32,-11.34,88.0,75.0,12.48,KZ,1609623265.0
ejura,7.39,-1.36,81.63,61.0,0.0,6.71,GH,1609623266.0
saint-georges,12.06,-61.75,86.0,55.0,20.0,12.75,GD,1609623102.0
bratsk,56.13,101.61,-14.8,75.0,100.0,4.47,RU,1609623268.0
trincomalee,8.57,81.23,80.24,83.0,34.0,13.0,LK,1609623270.0
rocha,-34.48,-54.33,69.58,53.0,0.0,10.89,UY,1609623112.0
teya,60.38,92.63,-13.61,85.0,100.0,3.6,RU,1609623272.0
amapa,1.0,-52.0,78.89,71.0,83.0,3.49,BR,1609623274.0
ouango,4.31,22.56,75.45,64.0,100.0,3.18,CF,1609623275.0
hammerfest,70.66,23.68,28.4,92.0,42.0,10.29,NO,1609623276.0
sauda,59.65,6.35,32.0,76.0,65.0,3.0,NO,1609623277.0
celestun,20.87,-90.4,78.1,79.0,100.0,12.37,MX,1609623279.0
alingsas,57.93,12.53,33.01,98.0,40.0,5.82,SE,1609623280.0
tigil,57.8,158.67,5.99,95.0,100.0,3.02,RU,1609623281.0
carahue,-38.7,-73.17,69.8,56.0,0.0,17.22,CL,1609623282.0
port hardy,50.7,-127.42,48.2,87.0,75.0,2.24,CA,1609623284.0
sooke,48.37,-123.73,46.4,89.0,100.0,8.05,CA,1609623285.0
kutum,14.2,24.67,58.37,29.0,58.0,5.12,SD,1609623286.0
pine bluff,34.23,-92.0,42.8,70.0,90.0,12.75,US,1609623003.0
nanortalik,60.14,-45.24,29.46,96.0,96.0,8.9,GL,1609623288.0
saint-francois,46.42,3.91,33.01,91.0,90.0,9.17,FR,1609623290.0
almaznyy,48.04,40.05,35.6,100.0,75.0,2.24,RU,1609623291.0
haukipudas,65.18,25.35,21.2,85.0,40.0,6.93,FI,1609623292.0
oranjemund,-28.55,16.43,81.27,54.0,98.0,13.29,NA,1609623293.0
manzhouli,49.6,117.43,-16.26,85.0,49.0,9.89,CN,1609623294.0
comodoro rivadavia,-45.87,-67.5,93.2,32.0,0.0,12.75,AR,1609623296.0
broome,42.25,-75.83,34.0,86.0,90.0,8.05,US,1609623297.0
bambui,-20.01,-45.98,71.24,85.0,100.0,4.41,BR,1609623298.0
taoudenni,22.68,-3.98,62.85,27.0,0.0,5.77,ML,1609623299.0
moba,33.23,105.02,23.74,83.0,100.0,3.33,CN,1609623300.0
aberdeen,57.14,-2.1,36.0,93.0,20.0,11.41,GB,1609623302.0
mehamn,71.04,27.85,23.92,95.0,78.0,7.92,NO,1609623303.0
kholtoson,50.3,103.31,-19.82,83.0,87.0,2.39,RU,1609623304.0
rorvik,64.86,11.24,34.81,85.0,0.0,6.08,NO,1609623305.0
baykit,61.67,96.37,-12.19,84.0,100.0,6.06,RU,1609623306.0
carutapera,-1.2,-46.02,79.74,80.0,99.0,7.25,BR,1609623308.0
aguas vermelhas,-15.75,-41.46,69.67,74.0,94.0,2.3,BR,1609623309.0
conakry,9.54,-13.68,81.37,78.0,0.0,10.36,GN,1609623310.0
mayo,38.89,-76.51,53.6,58.0,1.0,12.75,US,1609623311.0
sakaiminato,35.55,133.23,39.2,69.0,75.0,10.29,JP,1609623312.0
tuatapere,-46.13,167.68,53.01,97.0,100.0,5.99,NZ,1609623313.0
sayyan,15.17,44.32,46.36,56.0,3.0,3.85,YE,1609623077.0
port lincoln,-34.73,135.87,64.27,79.0,100.0,14.12,AU,1609623316.0
storslett,69.77,21.02,28.6,94.0,94.0,8.57,NO,1609623317.0
klaksvik,62.23,-6.59,32.0,76.0,19.0,1.12,FO,1609623318.0
scarborough,54.28,-0.4,41.0,87.0,100.0,4.0,GB,1609623029.0
angoche,-16.23,39.91,80.08,79.0,87.0,2.82,MZ,1609623321.0
khatanga,71.97,102.5,-20.25,85.0,56.0,10.58,RU,1609623322.0
machico,32.7,-16.77,59.0,54.0,75.0,9.17,PT,1609623323.0
manono,-7.3,27.42,68.74,95.0,100.0,0.89,CD,1609623324.0
newcastle,-32.93,151.78,73.99,88.0,75.0,9.17,AU,1609623142.0
kavieng,-2.57,150.8,83.53,75.0,100.0,11.65,PG,1609623326.0
touros,-5.2,-35.46,80.6,74.0,20.0,12.75,BR,1609623328.0
asau,46.43,26.4,30.99,71.0,0.0,3.18,RO,1609623329.0
kamenka,51.32,42.77,34.0,95.0,100.0,9.86,RU,1609623330.0
arbazh,57.68,48.31,12.7,96.0,100.0,10.36,RU,1609623331.0
pachino,36.72,15.09,45.0,93.0,0.0,3.36,IT,1609623332.0
nisia floresta,-6.09,-35.21,82.4,74.0,20.0,11.41,BR,1609623333.0
wadi musa,30.32,35.48,50.79,61.0,71.0,4.09,JO,1609623335.0
kirovsk,48.64,38.64,31.12,97.0,0.0,1.57,UA,1609623336.0
ucluelet,48.93,-125.55,48.99,93.0,90.0,3.36,CA,1609623338.0
axim,4.87,-2.24,79.48,85.0,0.0,9.04,GH,1609623339.0
sabang,5.89,95.32,80.96,81.0,100.0,20.0,ID,1609623340.0
te anau,-45.42,167.72,51.01,93.0,98.0,1.01,NZ,1609623342.0
cockburn town,21.46,-71.14,78.8,61.0,40.0,11.41,TC,1609623343.0
santiago de cuba,20.02,-75.82,80.6,65.0,20.0,19.46,CU,1609623204.0
keti bandar,24.14,67.45,58.44,31.0,0.0,7.92,PK,1609623345.0
robertsport,6.75,-11.37,80.85,81.0,0.0,11.43,LR,1609623346.0
maceio,-9.67,-35.74,78.8,78.0,0.0,8.05,BR,1609623348.0
cherskiy,68.75,161.3,-26.12,84.0,100.0,6.04,RU,1609623349.0
saiha,22.48,92.97,54.54,67.0,98.0,3.42,IN,1609623350.0
khasan,42.43,130.64,9.25,82.0,0.0,17.25,RU,1609623351.0
olovyannaya,50.95,115.57,-15.74,84.0,60.0,5.84,RU,1609623352.0
bontang,0.13,117.5,76.93,88.0,100.0,3.85,ID,1609623353.0
zhuhai,22.28,113.57,55.4,82.0,20.0,13.87,CN,1609623355.0
noumea,-22.28,166.46,82.99,88.0,0.0,1.12,NC,1609623356.0
miyako,39.64,141.95,19.74,85.0,0.0,5.12,JP,1609623357.0
balsas,-7.53,-46.04,81.82,65.0,86.0,2.66,BR,1609623216.0
richards bay,-28.78,32.04,69.44,75.0,100.0,2.51,ZA,1609623359.0
ciudad ojeda,10.2,-71.31,84.85,63.0,44.0,5.17,VE,1609623361.0
krasnoselkup,65.7,82.47,-20.72,84.0,95.0,13.33,RU,1609623362.0
verkhnevilyuysk,63.45,120.32,-17.14,87.0,100.0,7.02,RU,1609623363.0
upernavik,72.79,-56.15,7.84,94.0,100.0,12.33,GL,1609623364.0
olinda,-8.01,-34.86,78.8,69.0,40.0,8.05,BR,1609623299.0
alekseyevsk,57.84,108.35,-18.06,83.0,100.0,9.8,RU,1609623366.0
glazov,58.14,52.66,10.47,95.0,100.0,10.96,RU,1609623368.0
carrickmacross,53.97,-6.72,35.01,83.0,0.0,4.0,IE,1609623369.0
dedougou,12.47,-3.47,80.49,18.0,0.0,3.8,BF,1609623370.0
kruisfontein,-34.0,24.73,66.99,81.0,0.0,1.01,ZA,1609623371.0
victoria,22.29,114.16,57.99,62.0,26.0,12.68,HK,1609623171.0
sawtell,-30.38,153.1,73.4,88.0,40.0,4.7,AU,1609623374.0
shimoda,34.67,138.95,30.99,81.0,8.0,14.9,JP,1609623375.0
libertador general san martin,-23.81,-64.79,90.0,59.0,93.0,4.0,AR,1609623206.0
okhotsk,59.38,143.3,-19.03,77.0,77.0,19.51,RU,1609623377.0
sucre,-19.03,-65.26,66.11,58.0,0.0,16.02,BO,1609623378.0
puerto madryn,-42.77,-65.04,84.83,21.0,0.0,20.69,AR,1609623379.0
north bend,43.41,-124.22,55.4,76.0,90.0,19.46,US,1609623381.0
pisco,-13.7,-76.22,75.2,73.0,0.0,18.34,PE,1609623382.0
krutikha,53.96,81.21,-26.63,84.0,0.0,3.89,RU,1609623383.0
baiao,-2.79,-49.67,76.57,95.0,97.0,2.59,BR,1609623384.0
mineiros,-17.57,-52.55,74.17,80.0,52.0,3.33,BR,1609623385.0
losevo,50.68,40.05,32.27,96.0,98.0,3.4,RU,1609623386.0
santarem,-2.44,-54.71,87.8,70.0,20.0,8.05,BR,1609623388.0
peace river,56.25,-117.29,14.0,85.0,90.0,8.05,CA,1609623389.0
lyuban,52.8,28.0,32.67,96.0,72.0,4.94,BY,1609623390.0
bereda,43.27,-7.54,37.99,100.0,53.0,1.99,ES,1609623391.0
mount gambier,-37.83,140.77,62.6,93.0,90.0,12.75,AU,1609623099.0
sorkjosen,69.8,20.93,27.63,91.0,90.0,10.07,NO,1609623393.0
tura,25.52,90.22,56.07,80.0,84.0,2.95,IN,1609623395.0
dolores,-36.31,-57.68,79.48,40.0,0.0,17.69,AR,1609623396.0
port-gentil,-0.72,8.78,78.8,94.0,40.0,3.36,GA,1609623397.0
aljezur,37.32,-8.8,45.0,45.0,2.0,1.99,PT,1609623398.0
banyo,6.75,11.82,67.32,33.0,0.0,2.46,CM,1609623399.0
andenes,69.31,16.12,35.01,86.0,100.0,5.82,NO,1609623400.0
ikongo,-21.88,47.43,71.1,89.0,88.0,1.07,MG,1609623402.0
honiara,-9.43,159.95,78.8,83.0,75.0,2.24,SB,1609623403.0
sandwick,60.0,-1.25,39.2,80.0,35.0,17.22,GB,1609623404.0
kahului,20.89,-156.47,78.8,65.0,40.0,16.11,US,1609623195.0
benito juarez,19.39,-99.17,73.4,9.0,5.0,3.36,MX,1609623406.0
harper,4.38,-7.72,79.38,84.0,46.0,7.7,LR,1609623408.0
clearwater,27.97,-82.8,75.99,88.0,100.0,12.75,US,1609623405.0
kataysk,56.29,62.58,-6.86,91.0,100.0,11.21,RU,1609623410.0
holbeach,52.8,0.01,34.0,91.0,93.0,4.85,GB,1609623411.0
lanivtsi,49.86,26.09,34.0,91.0,83.0,10.07,UA,1609623412.0
norman wells,65.28,-126.83,1.4,64.0,75.0,16.11,CA,1609623413.0
krasnoarmeysk,51.02,45.7,33.33,96.0,100.0,7.18,RU,1609623415.0
pirmasens,49.2,7.61,35.01,100.0,90.0,4.7,DE,1609623275.0
wewak,-3.55,143.63,79.52,84.0,100.0,4.81,PG,1609623417.0
aklavik,68.22,-135.01,-13.0,75.0,90.0,8.05,CA,1609623418.0
talnakh,69.49,88.4,-13.0,75.0,90.0,17.9,RU,1609623419.0
yumen,40.28,97.2,12.9,82.0,100.0,7.47,CN,1609623421.0
dakoro,14.51,6.76,75.2,18.0,0.0,7.07,NE,1609623422.0
isangel,-19.55,169.27,82.4,88.0,75.0,9.17,VU,1609623423.0
arlit,18.74,7.39,73.24,21.0,0.0,3.11,NE,1609623424.0
pinczow,50.52,20.53,37.0,99.0,73.0,1.01,PL,1609623425.0
cradock,-32.16,25.62,69.57,54.0,1.0,5.26,ZA,1609623427.0
cap-aux-meules,47.38,-61.86,30.2,80.0,100.0,16.11,CA,1609623428.0
bay roberts,47.6,-53.26,28.99,75.0,70.0,1.88,CA,1609623429.0
coahuayana,18.73,-103.68,80.6,28.0,5.0,6.93,MX,1609623430.0
coihaique,-45.58,-72.07,64.4,63.0,90.0,8.05,CL,1609623431.0
marawi,8.0,124.29,73.99,93.0,97.0,7.0,PH,1609623433.0
ust-tsilma,65.44,52.15,-1.88,91.0,98.0,7.92,RU,1609623434.0
fereydunshahr,32.94,50.12,20.35,65.0,0.0,3.2,IR,1609623435.0
cayenne,4.93,-52.33,78.8,94.0,100.0,8.05,GF,1609623436.0
chervishevo,56.95,65.43,-18.4,75.0,0.0,8.95,RU,1609623437.0
rio branco,-9.97,-67.81,89.6,59.0,40.0,3.36,BR,1609623438.0
turukhansk,65.82,87.98,-19.46,88.0,100.0,8.3,RU,1609623440.0
hatillo,18.49,-66.83,78.8,65.0,40.0,14.99,PR,1609623441.0
utmanzai,34.19,71.76,44.6,65.0,5.0,4.7,PK,1609623442.0
kedrovyy,56.17,91.82,-23.8,74.0,40.0,2.24,RU,1609623443.0
severodvinsk,64.56,39.83,23.0,92.0,90.0,6.71,RU,1609623444.0
mahebourg,-20.41,57.7,77.0,69.0,40.0,17.22,MU,1609623445.0
besskorbnaya,44.64,41.31,41.88,81.0,66.0,3.65,RU,1609623447.0
xingyi,24.19,102.82,39.31,96.0,2.0,1.61,CN,1609623448.0
asosa,10.07,34.53,68.05,38.0,0.0,4.0,ET,1609623449.0
mitsamiouli,-11.38,43.28,82.63,70.0,86.0,6.93,KM,1609623450.0
abha,18.22,42.51,55.4,50.0,0.0,0.83,SA,1609623451.0
poum,-20.23,164.02,81.97,81.0,100.0,15.32,NC,1609623453.0
omidiyeh,30.76,49.7,55.4,82.0,8.0,4.7,IR,1609623454.0
santa cruz,-17.8,-63.17,89.6,58.0,40.0,10.29,BO,1609623168.0
batesville,35.77,-91.64,37.99,93.0,90.0,3.06,US,1609623456.0
tsuruga,35.65,136.06,37.0,73.0,98.0,7.0,JP,1609623457.0
arman,59.7,150.17,-2.9,80.0,100.0,12.01,RU,1609623458.0
anuradhapura,8.36,80.42,72.93,97.0,41.0,4.41,LK,1609623460.0
callaway,30.15,-85.57,63.0,93.0,90.0,9.17,US,1609623461.0
nizwa,22.93,57.53,52.61,44.0,0.0,0.43,OM,1609623462.0
rusape,-18.53,32.13,59.41,96.0,29.0,6.06,ZW,1609623463.0
sao filipe,14.9,-24.5,75.79,72.0,41.0,11.39,CV,1609623464.0
dosso,13.05,3.19,77.81,17.0,0.0,7.16,NE,1609623466.0
pyapon,16.28,95.68,66.7,86.0,68.0,5.03,MM,1609623467.0
simbahan,6.3,120.58,81.9,81.0,100.0,10.29,PH,1609623468.0
esperance,-33.87,121.9,59.0,72.0,90.0,6.93,AU,1609623469.0
whitehorse,60.72,-135.05,9.0,84.0,75.0,3.36,CA,1609623381.0
arica,-18.48,-70.3,73.4,73.0,0.0,13.87,CL,1609623236.0
brownsville,25.9,-97.5,68.0,30.0,1.0,9.17,US,1609623322.0
saint-pierre,-21.34,55.48,77.0,69.0,0.0,20.8,RE,1609623474.0
lata,40.16,-8.33,46.99,87.0,0.0,2.39,PT,1609623475.0
inirida,3.87,-67.92,78.58,94.0,87.0,2.53,CO,1609623476.0
huntsville,34.73,-86.59,57.99,58.0,1.0,4.7,US,1609623259.0
marshfield,44.67,-90.17,26.6,86.0,90.0,3.36,US,1609623478.0
balykshi,47.07,51.87,12.2,85.0,98.0,4.47,KZ,1609623480.0
santa catalina,9.33,122.86,82.4,78.0,90.0,4.7,PH,1609623481.0
muyezerskiy,63.93,31.65,32.59,98.0,100.0,3.36,RU,1609623482.0
aykhal,66.0,111.5,-14.8,68.0,0.0,6.71,RU,1609623483.0
pundaguitan,6.37,126.17,79.16,87.0,99.0,14.47,PH,1609623484.0
bandarbeyla,9.49,50.81,73.36,75.0,23.0,16.53,SO,1609623485.0
labuan,5.28,115.24,80.6,88.0,20.0,5.82,MY,1609623487.0
eureka,40.8,-124.16,55.99,81.0,100.0,4.0,US,1609623319.0
katsuura,35.13,140.3,39.2,48.0,75.0,5.82,JP,1609623489.0
salalah,17.02,54.09,71.6,73.0,0.0,4.7,OM,1609623491.0
usevya,-7.1,31.23,66.78,91.0,100.0,1.14,TZ,1609623492.0
alta floresta,-9.88,-56.09,91.4,55.0,75.0,3.36,BR,1609623493.0
mont-joli,48.58,-68.19,24.01,85.0,90.0,6.93,CA,1609623494.0
dicabisagan,17.08,122.42,75.65,86.0,100.0,9.37,PH,1609623496.0
nanyamba,-10.68,39.83,77.0,94.0,20.0,9.17,TZ,1609623497.0
sebring,27.5,-81.44,82.4,58.0,75.0,5.82,US,1609623498.0
muncar,-8.43,114.33,75.83,83.0,85.0,1.52,ID,1609623499.0
kaffrine,14.11,-15.55,79.7,17.0,0.0,9.89,SN,1609623500.0
leningradskiy,69.38,178.42,-16.31,87.0,50.0,3.51,RU,1609623502.0
pouembout,-21.13,164.9,83.3,71.0,98.0,5.28,NC,1609623503.0
naze,28.37,129.48,59.0,67.0,75.0,8.05,JP,1609623504.0
hualmay,-11.1,-77.61,72.32,73.0,87.0,10.2,PE,1609623505.0
souillac,-20.52,57.52,77.0,69.0,40.0,17.22,MU,1609623506.0
gazanjyk,39.24,55.52,32.2,89.0,0.0,7.09,TM,1609623507.0
cidreira,-30.18,-50.21,71.73,75.0,4.0,12.28,BR,1609623509.0
les abymes,16.27,-61.5,78.8,65.0,40.0,14.99,GP,1609623510.0
brodokalmak,55.57,62.08,1.4,77.0,75.0,13.42,RU,1609623511.0
mikhaylovka,50.06,43.24,36.0,95.0,100.0,5.99,RU,1609623512.0
mandalgovi,45.76,106.27,-11.25,86.0,99.0,7.58,MN,1609623513.0
panguna,-6.32,155.48,76.28,82.0,29.0,2.86,PG,1609623514.0
escanaba,45.75,-87.06,28.4,74.0,1.0,5.82,US,1609623349.0
ambilobe,-13.2,49.05,75.29,85.0,100.0,3.11,MG,1609623517.0
kununurra,-15.77,128.73,80.6,100.0,53.0,4.7,AU,1609623518.0
olga,43.74,135.29,0.61,77.0,0.0,12.64,RU,1609623519.0
kailua,21.4,-157.74,80.6,69.0,90.0,14.99,US,1609623283.0
salvador,13.83,-88.92,84.2,70.0,20.0,5.82,SV,1609623521.0
hami,42.8,93.45,12.97,89.0,61.0,3.33,CN,1609623523.0
mangai,-4.05,19.53,70.41,96.0,74.0,1.36,CD,1609623524.0
selje,62.05,5.35,32.0,86.0,0.0,5.1,NO,1609623525.0
dossor,47.53,52.98,22.17,90.0,100.0,8.72,KZ,1609623526.0
consett,54.85,-1.83,36.0,94.0,22.0,9.69,GB,1609623527.0
gravdal,68.12,13.5,39.0,72.0,97.0,5.79,NO,1609623528.0
constitucion,-35.33,-72.42,63.43,67.0,11.0,12.28,CL,1609623530.0
show low,34.25,-110.03,46.4,24.0,1.0,11.41,US,1609623531.0
cuamba,-14.8,36.54,69.03,93.0,98.0,2.51,MZ,1609623532.0
honningsvag,70.98,25.97,29.3,93.0,42.0,10.49,NO,1609623533.0
oum hadjer,13.3,19.7,79.92,19.0,59.0,11.5,TD,1609623534.0
the valley,18.22,-63.06,80.6,61.0,75.0,14.99,AI,1609623536.0
balestrand,61.21,6.53,21.0,94.0,5.0,3.51,NO,1609623537.0
jidong,45.22,131.08,-15.2,84.0,0.0,6.04,CN,1609623538.0
irtyshskiy,58.33,68.13,-26.63,85.0,1.0,6.98,RU,1609623539.0
makakilo city,21.35,-158.09,82.4,51.0,1.0,11.41,US,1609623540.0
las palmas,28.42,-14.01,64.4,55.0,90.0,17.22,ES,1609623542.0
imbituba,-28.24,-48.67,78.8,57.0,20.0,10.29,BR,1609623504.0
novyye gorki,56.73,41.06,29.1,99.0,100.0,3.02,RU,1609623544.0
san carlos,9.66,-68.58,80.4,69.0,49.0,4.52,VE,1609623545.0
fort nelson,58.81,-122.7,-4.0,76.0,90.0,3.36,CA,1609623388.0
trinidad,-14.83,-64.9,78.8,88.0,75.0,3.96,BO,1609623548.0
kyabram,-36.32,145.05,64.0,76.0,13.0,9.35,AU,1609623549.0
berlevag,70.86,29.09,25.81,94.0,88.0,10.31,NO,1609623550.0
san pedro,14.35,121.02,77.0,83.0,75.0,5.82,PH,1609623551.0
moranbah,-22.0,148.05,77.59,77.0,71.0,10.58,AU,1609623552.0
auxerre,47.8,3.57,33.01,89.0,54.0,3.33,FR,1609623392.0
kaitangata,-46.28,169.85,62.01,89.0,100.0,4.25,NZ,1609623555.0
riverton,40.52,-111.94,39.99,59.0,1.0,5.82,US,1609623556.0
kupang,-10.17,123.58,75.2,100.0,20.0,1.12,ID,1609623557.0
denpasar,-8.65,115.22,77.0,94.0,75.0,8.05,ID,1609623558.0
kuruman,-27.45,23.43,63.0,92.0,100.0,21.94,ZA,1609623559.0
burevestnik,56.14,43.79,24.01,85.0,90.0,4.47,RU,1609623560.0
lompoc,34.64,-120.46,57.2,71.0,1.0,13.87,US,1609623562.0
villa guerrero,18.87,-99.65,80.6,15.0,5.0,3.36,MX,1609623563.0
rafiganj,24.82,84.65,51.8,87.0,100.0,1.45,IN,1609623564.0
ipixuna,-1.76,-48.8,80.6,88.0,75.0,5.82,BR,1609623565.0
khao wong,16.7,104.09,54.84,80.0,7.0,5.28,TH,1609623566.0
iquique,-20.22,-70.14,73.4,73.0,75.0,12.75,CL,1609623451.0
brigantine,39.41,-74.36,51.8,57.0,1.0,13.87,US,1609623281.0
xinzhi,36.5,111.7,30.94,72.0,100.0,1.05,CN,1609623570.0
peniche,39.36,-9.38,44.01,86.0,0.0,1.99,PT,1609623571.0
kaele,10.11,14.45,77.95,21.0,23.0,12.03,CM,1609623572.0
nileshwar,12.25,75.1,77.0,73.0,20.0,6.93,IN,1609623574.0
northam,51.03,-4.22,37.99,85.0,31.0,10.0,GB,1609623575.0
fairbanks,64.84,-147.72,-7.01,83.0,75.0,2.53,US,1609623475.0
galle,6.04,80.22,75.54,89.0,40.0,6.38,LK,1609623577.0
alice springs,-23.7,133.88,84.0,57.0,1.0,5.82,AU,1609623578.0
blagoveshchenka,52.83,79.87,-30.08,84.0,12.0,5.37,RU,1609623579.0
fallon,39.47,-118.78,46.4,39.0,75.0,4.97,US,1609623581.0
komsomolskiy,40.43,71.72,23.0,85.0,90.0,0.47,UZ,1609623582.0
necochea,-38.55,-58.74,81.48,35.0,0.0,12.33,AR,1609623583.0
dalbandin,28.89,64.41,40.01,56.0,0.0,5.5,PK,1609623584.0
manokwari,-0.87,134.08,79.99,77.0,100.0,8.57,ID,1609623585.0
qaqortoq,60.72,-46.03,28.4,86.0,100.0,5.82,GL,1609623586.0
dong hoi,17.48,106.6,61.39,80.0,100.0,6.58,VN,1609623572.0
guerrero negro,27.98,-114.06,68.5,26.0,0.0,11.95,MX,1609623589.0
vulcan,45.38,23.27,34.48,88.0,11.0,4.34,RO,1609623590.0
kochubey,44.39,46.58,35.46,92.0,86.0,1.5,RU,1609623591.0
barabai,-2.58,115.38,75.87,88.0,89.0,0.83,ID,1609623592.0
mandera,3.94,41.87,82.22,30.0,40.0,5.95,KE,1609623593.0
agadez,19.75,10.25,69.6,22.0,0.0,7.56,NE,1609623595.0
cap malheureux,-19.98,57.61,75.0,73.0,12.0,5.99,MU,1609623596.0
toktogul,41.87,72.94,24.37,55.0,0.0,1.25,KG,1609623597.0
copperas cove,31.12,-97.9,61.0,26.0,1.0,8.05,US,1609623333.0
zvishavane,-20.33,30.07,65.19,91.0,100.0,11.45,ZW,1609623599.0
mochudi,-24.42,26.15,69.8,68.0,0.0,13.87,BW,1609623601.0
la cumbre,-30.98,-64.49,89.01,33.0,0.0,18.34,AR,1609623603.0
kontagora,10.4,5.47,78.44,22.0,0.0,4.38,NG,1609623604.0
wajir,1.75,40.06,82.8,48.0,91.0,7.43,KE,1609623605.0
bellavista,-7.06,-76.59,84.2,70.0,40.0,10.29,PE,1609623542.0
high level,58.52,-117.14,-0.4,84.0,90.0,2.24,CA,1609623608.0
mvuma,-19.28,30.53,62.28,89.0,99.0,9.89,ZW,1609623609.0
medway,51.42,0.5,35.01,86.0,100.0,6.2,GB,1609623610.0
villa alemana,-33.04,-71.37,66.0,72.0,40.0,11.41,CL,1609623533.0
tighina,46.83,29.47,39.2,86.0,0.0,5.82,MD,1609623613.0
bull savanna,17.89,-77.59,76.51,68.0,0.0,14.18,JM,1609623614.0
sur,22.57,59.53,67.75,47.0,0.0,10.67,OM,1609623615.0
pekin,39.91,116.4,24.01,40.0,22.0,5.12,CN,1609623616.0
green river,41.53,-109.47,30.2,63.0,90.0,25.28,US,1609623617.0
iralaya,15.0,-83.23,78.82,84.0,88.0,18.05,HN,1609623619.0
san quintin,30.48,-115.95,64.65,33.0,2.0,11.74,MX,1609623620.0
auki,-8.77,160.7,84.09,61.0,28.0,3.09,SB,1609623621.0
lima,-12.04,-77.03,73.99,78.0,0.0,11.41,PE,1609623622.0
kavaratti,10.57,72.64,81.28,65.0,0.0,8.99,IN,1609623623.0
chumikan,54.72,135.31,-19.03,78.0,100.0,21.9,RU,1609623624.0
ostrovnoy,68.05,39.51,19.69,95.0,100.0,9.71,RU,1609623626.0
cabinda,-5.55,12.2,78.46,90.0,87.0,7.7,AO,1609623627.0
finschhafen,-6.6,147.87,83.03,70.0,100.0,4.29,PG,1609623628.0
puerto escondido,15.85,-97.07,82.4,69.0,40.0,4.7,MX,1609623606.0
salinopolis,-0.61,-47.36,81.32,78.0,100.0,10.45,BR,1609623630.0
miles city,46.41,-105.84,41.0,86.0,90.0,13.87,US,1609623632.0
parrita,9.52,-84.32,78.8,60.0,20.0,19.46,CR,1609623633.0
bluefield,37.27,-81.22,55.4,62.0,1.0,5.82,US,1609623634.0
acapulco,16.86,-99.89,84.2,51.0,5.0,9.17,MX,1609623509.0
ambulu,-8.35,113.61,75.58,85.0,100.0,2.51,ID,1609623636.0
tiznit,29.58,-9.5,50.88,78.0,79.0,4.97,MA,1609623637.0
chiang kham,19.52,100.3,61.0,99.0,100.0,1.57,TH,1609623639.0
dukat,62.55,155.55,-29.54,83.0,100.0,6.49,RU,1609623640.0
benguela,-12.58,13.41,76.42,78.0,100.0,3.02,AO,1609623641.0
stolin,51.89,26.85,33.24,92.0,89.0,5.99,BY,1609623642.0
saint-augustin,51.23,-58.65,10.17,89.0,100.0,1.99,CA,1609623643.0
bongaree,-27.08,153.16,75.99,90.0,25.0,5.41,AU,1609623645.0
opuwo,-18.06,13.84,68.49,63.0,96.0,5.32,NA,1609623646.0
tecoanapa,16.52,-98.75,82.38,49.0,0.0,7.74,MX,1609623647.0
landskrona,55.87,12.83,35.01,94.0,2.0,7.85,SE,1609623648.0
montepuez,-13.13,39.0,69.13,98.0,99.0,3.06,MZ,1609623649.0
inhambane,-23.86,35.38,77.18,85.0,26.0,10.49,MZ,1609623650.0
inhambupe,-11.78,-38.35,75.61,75.0,94.0,11.72,BR,1609623652.0
itarema,-2.92,-39.92,80.37,75.0,0.0,16.73,BR,1609623653.0
mo i rana,66.31,14.14,21.99,85.0,0.0,1.99,NO,1609623490.0
hofn,64.25,-15.21,42.39,87.0,100.0,2.64,IS,1609623655.0
flinders,-34.58,150.86,66.99,98.0,100.0,4.0,AU,1609623656.0
yerbogachen,61.28,108.01,-19.52,85.0,100.0,9.89,RU,1609623658.0
mahajanga,-15.72,46.32,80.4,75.0,93.0,6.29,MG,1609623659.0
ginir,7.13,40.7,58.15,52.0,64.0,4.74,ET,1609623660.0
kawardha,22.02,81.25,61.75,53.0,81.0,4.03,IN,1609623661.0
puerto leguizamo,-0.19,-74.78,78.96,79.0,97.0,1.97,CO,1609623662.0
balkanabat,39.51,54.37,34.95,79.0,0.0,1.21,TM,1609623664.0
brownsburg,39.84,-86.4,37.0,80.0,90.0,4.25,US,1609623452.0
wanning,18.8,110.4,63.75,81.0,83.0,7.27,CN,1609623446.0
bathurst,-33.42,149.58,66.0,85.0,100.0,5.55,AU,1609623507.0
lixourion,38.2,20.43,58.71,85.0,100.0,18.16,GR,1609623668.0
vetovo,43.7,26.27,46.9,81.0,0.0,15.57,BG,1609623670.0
oistins,13.07,-59.53,80.6,57.0,20.0,19.46,BB,1609623671.0
jacareacanga,-6.22,-57.75,81.55,77.0,52.0,1.63,BR,1609623672.0
quatre cocos,-20.21,57.76,77.0,69.0,40.0,17.22,MU,1609623673.0
viedma,-40.81,-63.0,97.0,35.0,0.0,15.55,AR,1609623501.0
caucaia,-3.74,-38.65,82.4,74.0,20.0,8.05,BR,1609623675.0
cartagena,10.4,-75.51,89.6,59.0,20.0,12.75,CO,1609623553.0
san rafael,-34.62,-68.33,74.89,55.0,86.0,14.32,AR,1609623678.0
paraguacu,-21.55,-45.74,69.89,84.0,90.0,4.12,BR,1609623417.0
kasama,-10.21,31.18,60.01,98.0,100.0,2.77,ZM,1609623680.0
padang,-0.95,100.35,77.0,94.0,40.0,2.24,ID,1609623681.0
luanda,-8.84,13.23,78.8,83.0,75.0,3.36,AO,1609623682.0
rosarito,32.33,-117.03,66.2,45.0,5.0,13.87,MX,1609623684.0
sola,-13.88,167.55,86.0,79.0,90.0,12.73,VU,1609623685.0
phon,15.82,102.6,63.0,99.0,0.0,7.05,TH,1609623686.0
kieta,-6.22,155.63,82.53,71.0,75.0,1.3,PG,1609623687.0
seoul,37.57,126.98,14.0,61.0,1.0,1.86,KR,1609623397.0
ternate,0.8,127.4,81.12,79.0,91.0,7.7,ID,1609623690.0
bako,5.78,36.57,67.06,62.0,63.0,3.65,ET,1609623691.0
buin,-33.73,-70.75,84.0,36.0,20.0,10.29,CL,1609623692.0
